{"id":1224082863445938176,"conversationId":1223947056080965634,"content":"@KayaJones Love ya Kaya but those little masks ain‚Äôt doing nuthin to stop viruses. If a person sneezes in your face it might stop the ‚Äúliquid‚Äù but virus?  Nope.  Wash your hands, wipe down your seat, the monitor etc, and don‚Äôt talk to people close up!","latitude":40.284224,"longitude":-111.943211,"country":"United States","countryCode":"US","locationName":"Saratoga Springs, UT","userLocation":"Salt Lake City, Utah","date":"2020-02-02T21:31:11+00:00"}
{"id":1224082808819331072,"conversationId":1223839657559019520,"content":"@YellowGrape10 Lissen, I don‚Äôt even want a corona any more.","latitude":32.496312,"longitude":-92.695547,"country":"United States","countryCode":"US","locationName":"Ruston, LA","userLocation":"Savannah, GA","date":"2020-02-02T21:30:58+00:00"}
{"id":1224080386478788609,"conversationId":1224080386478788609,"content":"Michael has his reservations on the lime actually being able to fight the virus. But I told him Hooters doesn't take reservations lol. #hooters #corona #coronavirus #lime @ Hooters https://t.co/2zyCkLD9DG","latitude":28.34291439,"longitude":-81.41681988,"country":"United States","countryCode":"US","locationName":"Kissimmee, FL","userLocation":"Kissimmee, Florida","date":"2020-02-02T21:21:21+00:00"}
{"id":1224071830551425024,"conversationId":1224071830551425024,"content":"Nobody: \nMe: a corona sounds üî• rn \nAlso hangover me: https://t.co/ZQ2UHZtnHx","latitude":33.788913,"longitude":-118.017789,"country":"United States","countryCode":"US","locationName":"Anaheim, CA","userLocation":"","date":"2020-02-02T20:47:21+00:00"}
{"id":1224043374392406021,"conversationId":1224043374392406021,"content":"This virus scare is real \n~\nSo many people here at the airport with masks \n~\nFear is the epitome of control and it‚Äôs clearly being used to keep the masses in a state of fight or flight \nWhich is a state where the body loses energy and the aura is drained\n~\nTurn your back on fear","latitude":36.992427,"longitude":-109.060257,"country":"United States","countryCode":"US","locationName":"Colorado, USA","userLocation":"","date":"2020-02-02T18:54:16+00:00"}
{"id":1224003063532400643,"conversationId":1224003063532400643,"content":"You read it here first folks: ‚ÄúTrump releases Corona to start a trade war‚Äù.  Now it all makes sense...üò∑üò≤ü§ìüòÖ\n\n#subwaygraffiti @ MTA-86th St-4, 5, 6 Lines https://t.co/OpFK8Dsd4O","latitude":40.77918,"longitude":-73.95552,"country":"United States","countryCode":"US","locationName":"Manhattan, NY","userLocation":"New York, NY","date":"2020-02-02T16:14:05+00:00"}
{"id":1223955519116890113,"conversationId":1223955519116890113,"content":"Uggg this stomach virus going around is NO Joke. Here‚Äôs hoping now that all 4 of us have had it. The Randazzo house is done with it for the season. @dazzo716 ü§Æüòìü§Æüòì","latitude":42.958569,"longitude":-78.889267,"country":"United States","countryCode":"US","locationName":"Kenmore, NY","userLocation":"","date":"2020-02-02T13:05:10+00:00"}
{"id":1223931683671506945,"conversationId":1223356849631657985,"content":"@Matt_Bridger68 @Benjiheath @unclestevevegas I think I may have not actually drunk ENOUGH... More booze would have killed the virusüòÇ","latitude":39.413012,"longitude":-84.462794,"country":"United States","countryCode":"US","locationName":"Monroe, OH","userLocation":"Monroe, OH","date":"2020-02-02T11:30:27+00:00"}
{"id":1223852146044604417,"conversationId":1223852146044604417,"content":"I think I got Corona virus üçªüçªüçªüçª","latitude":29.4955658,"longitude":-98.7647213,"country":"United States","countryCode":"US","locationName":"Helotes, TX","userLocation":"San Antonio, TX","date":"2020-02-02T06:14:24+00:00"}
{"id":1223806917660807169,"conversationId":1223806917660807169,"content":"Drinking a Corona Refresca Guava Lime by @GrupoModelo_MX @ Evans Funeral Chapel &amp; On-Site Crematory, Inc ‚Äî https://t.co/5ovAZjduWK","latitude":48.4958,"longitude":-122.615,"country":"United States","countryCode":"US","locationName":"Anacortes, WA","userLocation":"Oak Harbor, WA","date":"2020-02-02T03:14:41+00:00"}
{"id":1223996641776209921,"conversationId":1223996641776209921,"content":"the U.S. needs to shut down the boarders üòÇ keep that corona virus where YALL at","latitude":36.820791,"longitude":-76.334287,"country":"United States","countryCode":"US","locationName":"Norfolk, VA","userLocation":"703","date":"2020-02-02T15:48:34+00:00"}
{"id":1223996011498045440,"conversationId":1223996011498045440,"content":"Do that corona virus come with a lime in it ?","latitude":24.396308,"longitude":-87.634643,"country":"United States","countryCode":"US","locationName":"Florida, USA","userLocation":"Jacksonville, FL","date":"2020-02-02T15:46:04+00:00"}
{"id":1223989653876789249,"conversationId":1223967205110403073,"content":"@freezerohedge Unfortunately this is necessary to contain this virus. Billions of other lives depend on these draconian steps.","latitude":33.29026,"longitude":-112.3239143,"country":"United States","countryCode":"US","locationName":"Phoenix, AZ","userLocation":"","date":"2020-02-02T15:20:48+00:00"}
{"id":1223981303789498368,"conversationId":1223981299947462656,"content":"Without more research and evidence, it‚Äôs premature to assert definitively that the virus jumped from bat to humans through meat consumption at the market.\"","latitude":34.982924,"longitude":-90.310298,"country":"United States","countryCode":"US","locationName":"Tennessee, USA","userLocation":"Unionville, TN","date":"2020-02-02T14:47:37+00:00"}
{"id":1223974422874402816,"conversationId":1223974422874402816,"content":"They have WEIRF SHIT..  There..  Wasn't EATING BATS....  What caused the New Deadly Virus...  ..... https://t.co/lSr4xJLSl1","latitude":30.200365,"longitude":-94.258061,"country":"United States","countryCode":"US","locationName":"Lumberton, TX","userLocation":"77657","date":"2020-02-02T14:20:17+00:00"}
{"id":1223888886545485826,"conversationId":1223602619144425472,"content":"@prncssnghthwk @anayaschany My friend told me all flights are spiked bc of the virus and my hopper alert predicts good things in the future its all good ladies false alarm LOL","latitude":41.644102,"longitude":-87.940033,"country":"United States","countryCode":"US","locationName":"Chicago, IL","userLocation":"Chicago, IL","date":"2020-02-02T08:40:23+00:00"}
{"id":1223876256271220738,"conversationId":1223749607341154304,"content":"@DrJenGunter @soledadobrien I read most masks block down to 5 microns. The carona virus is about 3 microns. So, it's not gonna block all of them, but will block some. \nI'm still much more worried about the yearly flu. It's infected many millions &amp; killed thousands. https://t.co/RYLVGQDKTt","latitude":31.332176,"longitude":-109.050173,"country":"United States","countryCode":"US","locationName":"New Mexico, USA","userLocation":"Rio Grand Valley, NM","date":"2020-02-02T07:50:12+00:00"}
{"id":1224060252804415488,"conversationId":1224060252804415488,"content":"\"By using an estimate of 10 days from exposure to detection and an effective population of 20 million people in Wuhan catchment area the estimated median size of the Wuhan outbreak is¬†31,200 infections [95% CI: 23,400-40,400].\"\n\nhttps://t.co/XYWGDsyV5v","latitude":37.492971,"longitude":-122.506573,"country":"United States","countryCode":"US","locationName":"El Granada, CA","userLocation":"Half Moon Bay, CA","date":"2020-02-02T20:01:20+00:00"}
{"id":1224055491187351553,"conversationId":1224055491187351553,"content":"Happy 11th birthday to our goofy good boy Miles.   He‚Äôs beat a blood virus and cancer over the years just to hang out with us.  Happy and healthy today!   üôèüêïüëç https://t.co/ZSXozyFXXV","latitude":41.501409,"longitude":-93.709504,"country":"United States","countryCode":"US","locationName":"Des Moines, IA","userLocation":"Des Moines, IA","date":"2020-02-02T19:42:25+00:00"}
{"id":1223970358371373057,"conversationId":1223970358371373057,"content":"Has anyone been watching the people in cages ? To try to protect them from the Cron. Virus ? I probably just ask a stupid ? A lot of desperate poor are going to Die by the hands of the trump an his Republican party! No chance for life !! Unbelievable in the USA !","latitude":38.403186,"longitude":-84.8203089,"country":"United States","countryCode":"US","locationName":"Ohio, USA","userLocation":"Chesapeake, OH","date":"2020-02-02T14:04:08+00:00"}
{"id":1223853590210662400,"conversationId":1223849832244269057,"content":"@Seahawkfan4x4 @deenie7940 Buy masks this weekend. Stock your freezer and buy rice, pasta and beans. This ain't gonna be pretty. A half baked weaponized virus got out of a Chinese lab and it is going to kill millions before they have a vaccine. üò¨üò¨ü§î","latitude":39.871811,"longitude":-75.280284,"country":"United States","countryCode":"US","locationName":"Philadelphia, PA","userLocation":"Cape May, NJ","date":"2020-02-02T06:20:08+00:00"}
{"id":1224033536065204224,"conversationId":1223834666031046656,"content":"@MatthewJshow @realDonaldTrump LOL!  All you Americans worried about the wrong thing!  The virus ü¶† is spreading like the wild fires in Australia!  You won‚Äôt have to worry about the election, cause there won‚Äôt be one if they done get things under control!","latitude":53.395531,"longitude":-113.71368,"country":"Canada","countryCode":"CA","locationName":"Edmonton, Alberta","userLocation":"Edmonton, Alberta","date":"2020-02-02T18:15:11+00:00"}
{"id":1223968529512325125,"conversationId":1223968529512325125,"content":"The flu and corona virus are exactly why you should vaccinate your kids .. if your child has polio or the measles and then gets hit with a common virus they‚Äôre 1... 2... out for the count.","latitude":38.840172,"longitude":-77.485561,"country":"United States","countryCode":"US","locationName":"Chantilly, VA","userLocation":"United States","date":"2020-02-02T13:56:52+00:00"}
{"id":1223966656634015745,"conversationId":1223966656634015745,"content":"Coronavirus suspects in Wuhan ordered to go to quarantine zones\n\nhttps://t.co/EX2qqtx8TL","latitude":40.683935,"longitude":-74.026675,"country":"United States","countryCode":"US","locationName":"Manhattan, NY","userLocation":"New York City.","date":"2020-02-02T13:49:25+00:00"}
{"id":1223831975770959873,"conversationId":1223831519418101761,"content":"@IsChinar Could this virus paralyze the whole CCP security apparatus?","latitude":42.75267,"longitude":-83.80635,"country":"United States","countryCode":"US","locationName":"Fenton, MI","userLocation":"Michigan, USA","date":"2020-02-02T04:54:15+00:00"}
{"id":1223825086865534976,"conversationId":1223825086865534976,"content":"Corona?:8:!5didntevenmnowher https://t.co/0TXqXu5QAA","latitude":40.456935,"longitude":-122.452708,"country":"United States","countryCode":"US","locationName":"Redding, CA","userLocation":"","date":"2020-02-02T04:26:52+00:00"}
{"id":1223814347581001728,"conversationId":1223750595292606470,"content":"@00lOll0 Here it is, virus origination","latitude":38.403186,"longitude":-84.8203089,"country":"United States","countryCode":"US","locationName":"Ohio, USA","userLocation":"Central Ohio","date":"2020-02-02T03:44:12+00:00"}
{"id":1224111476627124226,"conversationId":1224110555771949056,"content":"@Wuhan__City @NFL The music they play when KC fans do their Tomahawk Chop.","latitude":42.283041,"longitude":-71.270426,"country":"United States","countryCode":"US","locationName":"Newton, MA","userLocation":"Massachusetts","date":"2020-02-02T23:24:53+00:00"}
{"id":1224045651618488320,"conversationId":1224045651618488320,"content":"And again, Communism sucks!\n--  #Coronavirus #ScrewChina üñïüá®üá≥\nCitizens blame officials for claiming for weeks that the virus was manageable and ignoring as well as covering up obvious signs that the outbreak was serious.\n\nhttps://t.co/zvLguUFuZU","latitude":37.708075,"longitude":-122.514926,"country":"United States","countryCode":"US","locationName":"San Francisco, CA","userLocation":"San Francisco, CA","date":"2020-02-02T19:03:19+00:00"}
{"id":1224031184167919616,"conversationId":1223794376842915845,"content":"@EamonCyr I sure as fuck was swearing this week when my account was taken over by someone pretending to be me, who spammed my entire contact list with a virus through InMail, and locked me out of my account. Twice. LinkedIn can eat a briefcase of Premium account, pinstripe-suited dicks.","latitude":50.84278,"longitude":-114.3160379,"country":"Canada","countryCode":"CA","locationName":"Calgary, Alberta","userLocation":"Ramsay, Calgary","date":"2020-02-02T18:05:50+00:00"}
{"id":1224111534231691266,"conversationId":1224111534231691266,"content":"JUST IN: @ADHPIO says the test is NEGATIVE...the person in Arkansas under watch for the #coronavirus has tested NEGATIVE for the virus according to the CDC. Read below ‚¨áÔ∏è #ARnews https://t.co/epPJY9Rcn6","latitude":34.6259499,"longitude":-92.5215951,"country":"United States","countryCode":"US","locationName":"Little Rock, AR","userLocation":"Little Rock,AR /Tampa, FL","date":"2020-02-02T23:25:07+00:00"}
{"id":1224055600780152832,"conversationId":1224054851241496576,"content":"@NumbersMuncher @billpostmus Unless Coronavirus kills the global economy.  We might see Democrats cheering on the virus.","latitude":39.783802,"longitude":-105.214417,"country":"United States","countryCode":"US","locationName":"Arvada, CO","userLocation":"South Park","date":"2020-02-02T19:42:51+00:00"}
{"id":1224019554537394176,"conversationId":1224005728547102721,"content":"@VsVmcgee Therez a u.s patent for the virus xD","latitude":33.704538,"longitude":-118.668404,"country":"United States","countryCode":"US","locationName":"Los Angeles, CA","userLocation":"Raleigh, NC","date":"2020-02-02T17:19:37+00:00"}
{"id":1223983644441751557,"conversationId":1223983644441751557,"content":"This is the most impressive construction video I have ever seen. A 1,000 beds hospital built IN A WEEK in Wuhan. \nThink of this when it takes us forever to assembly an IKEA box!\n\nAmazing Timelapse as China Completes First of Two Virus Hospitals in Wuhan https://t.co/I7meSNUxpE","latitude":40.70905497136342,"longitude":-74.01393080353552,"country":"United States","countryCode":"US","locationName":"Post Towers","userLocation":"New York, NY, | Monterrey, MX","date":"2020-02-02T14:56:56+00:00"}
{"id":1223863180067143680,"conversationId":1223863180067143680,"content":"‚Äúthere‚Äôs no coronavirus there‚Äôs corona verga!‚Äù- the bolos from my family","latitude":33.704538,"longitude":-118.668404,"country":"United States","countryCode":"US","locationName":"Los Angeles, CA","userLocation":"Los Angeles, CA","date":"2020-02-02T06:58:15+00:00"}
{"id":1224107716332998657,"conversationId":1224107716332998657,"content":"This Lysol spray could help to protect during the Corona virus epidemic. https://t.co/RKIGGMJF9M","latitude":39.708463,"longitude":-75.615625,"country":"United States","countryCode":"US","locationName":"Newport, DE","userLocation":"","date":"2020-02-02T23:09:57+00:00"}
{"id":1223981665741168640,"conversationId":1223981217365811200,"content":"@Austin_Whittel @Brett_Pats Thats why they got the virus","latitude":24.396308,"longitude":-87.634643,"country":"United States","countryCode":"US","locationName":"Florida, USA","userLocation":"The Voyd","date":"2020-02-02T14:49:04+00:00"}
{"id":1224073787727106048,"conversationId":1224037206928580608,"content":"@MazharAbbasGEO Now you would see a flood of Chinese goods which are not to be exported anywhere because virus but we will import/smuggle them and the mafia would make billions not to forget the share of the government people","latitude":40.329842,"longitude":-74.209064,"country":"United States","countryCode":"US","locationName":"Holmdel, NJ","userLocation":"Holmdel, NJ","date":"2020-02-02T20:55:07+00:00"}
{"id":1224023977758199808,"conversationId":1224023977758199808,"content":"Anyone have corona? I‚Äôm paying if u wanna come cough on my pillow","latitude":33.764565,"longitude":-84.3488546,"country":"United States","countryCode":"US","locationName":"Druid Hills, GA","userLocation":"The Old JQ","date":"2020-02-02T17:37:12+00:00"}
{"id":1224022545290186754,"conversationId":1224022545290186754,"content":"Pakistan rudaali gang relax! Let the government of Pakistan request India to airlift their citizens from Wuhan. It's none of India's business to interfere with their problems. Absolutely none. Imran Khan is after all the best PM in your eyes. Let him prove his worth.","latitude":34.028083,"longitude":-84.3592169,"country":"United States","countryCode":"US","locationName":"Alpharetta, GA","userLocation":"","date":"2020-02-02T17:31:30+00:00"}
{"id":1223982060886380546,"conversationId":1223982060886380546,"content":"Probably the most informative video presentation on the Corona Virus you would do yourself a favor to watch.\n\nIt is a Pandemic, bio airborne disease. I only share this with you because I care tremulously about you. \n\nPlease be safe.\n\nhttps://t.co/efQpPZ1gRL","latitude":43.510172,"longitude":-116.374494,"country":"United States","countryCode":"US","locationName":"Boise, ID","userLocation":"Winter Park, FL","date":"2020-02-02T14:50:38+00:00"}
{"id":1223816339632074752,"conversationId":1223816339632074752,"content":"It is a biggest sin to consume meat.\nAnd it is proved that Corona virus is spreading because of meat\nSo #NoMeat_NoCoronaVirus \n@WHO @WomensHealthMag\n@WholeFoods @WHOPhilippines @MensHealthMag  @HealthCareGov @nycHealthy \n@FoodCIips @FoodNetwork @WholeFoods @shijinsou_movie https://t.co/8cmVI9GWEA","latitude":42.727628,"longitude":-82.507445,"country":"United States","countryCode":"US","locationName":"East China, MI","userLocation":"Sukhmandla,Jodhpur,Rajasthan","date":"2020-02-02T03:52:07+00:00"}
{"id":1223811236028207104,"conversationId":1223777764534145024,"content":"@GoHeelsCody @JacobTurnerTHI The Corona virus is not a joke.  smh","latitude":32.970746,"longitude":-85.154953,"country":"United States","countryCode":"US","locationName":"LaGrange, GA","userLocation":" Somewhere in Braves Country","date":"2020-02-02T03:31:50+00:00"}
{"id":1224023207419596801,"conversationId":1224023207419596801,"content":"Asians have been wearing face masks since before the news broke out about the corona virus so please don‚Äôt be a fucking asshole to them https://t.co/vZZizkJ30q","latitude":33.788913,"longitude":-118.017789,"country":"United States","countryCode":"US","locationName":"Anaheim, CA","userLocation":"","date":"2020-02-02T17:34:08+00:00"}
{"id":1223824342607388673,"conversationId":1223824342607388673,"content":"There‚Äôs a new virus that got unleashed? #H5N1","latitude":32.700664,"longitude":-96.683671,"country":"United States","countryCode":"US","locationName":"Mesquite, TX","userLocation":"Dallas, TX","date":"2020-02-02T04:23:55+00:00"}
{"id":1223804097528090624,"conversationId":1223804097528090624,"content":"Fuck I‚Äôm getting sick üò£ corona virus ü¶† boomin inside my body rn","latitude":34.033432,"longitude":-117.5243291,"country":"United States","countryCode":"US","locationName":"Fontana, CA","userLocation":"At the Disco üå¥","date":"2020-02-02T03:03:28+00:00"}
{"id":1224042931662790656,"conversationId":1224042931662790656,"content":"did bts say they‚Äôre canceling events bc of the virus going around","latitude":41.882372,"longitude":-83.466022,"country":"United States","countryCode":"US","locationName":"Monroe, MI","userLocation":"22; she/her","date":"2020-02-02T18:52:31+00:00"}
{"id":1223955722469347335,"conversationId":1223955722469347335,"content":"#Coronavirus: First death outside #China reported in #Philippines - #Chinese government says 304 deaths &amp; 14,380 infections but #HongKong experts claim 75,000 affected by #virus as researchers attempt to build a global #database #development  https://t.co/LsJnPGGucq","latitude":32.586565,"longitude":-97.233811,"country":"United States","countryCode":"US","locationName":"Arlington, TX","userLocation":"Arlington, TX","date":"2020-02-02T13:05:58+00:00"}
{"id":1223888982678765569,"conversationId":1223888982678765569,"content":"Dam ima go get the Zika, Sars, swine ,Ebola vaccines before the corona virus gets me like how the other viruses got me v.v , it's TRUE people not vaccinated are more of a threat to those who are vaccinatedü§™ü§£ü§£  Yall safe from the corona virus. Sounds dumb huh ü§£ü§£","latitude":33.704538,"longitude":-118.668404,"country":"United States","countryCode":"US","locationName":"Los Angeles, CA","userLocation":"Raleigh, NC","date":"2020-02-02T08:40:46+00:00"}
{"id":1223806619680563200,"conversationId":1223806619680563200,"content":"one of these foo's has Corona in their backpack can u guess who has it?üëÄüëÄ https://t.co/NqPDiBw6Yz","latitude":33.704538,"longitude":-118.668404,"country":"United States","countryCode":"US","locationName":"Los Angeles, CA","userLocation":"Los Angeles, CA","date":"2020-02-02T03:13:30+00:00"}
{"id":1223826941448376320,"conversationId":1223826941448376320,"content":"This corona virus shit is really showing me who‚Äôs racist and it‚Äôs gross.","latitude":32.53962,"longitude":-117.282538,"country":"United States","countryCode":"US","locationName":"San Diego, CA","userLocation":"San Diego","date":"2020-02-02T04:34:15+00:00"}
{"id":1224063804461518848,"conversationId":1223749607341154304,"content":"@soledadobrien I just spent 14 hours on a flight with 200 other people coming from China. Could be a possibility I was exposed to the virus from one irresponsible person on that flight. So wearing a mask when I get off the plane at a busy airport is for your safety not mine! You're welcome","latitude":32.808748,"longitude":-97.264529,"country":"United States","countryCode":"US","locationName":"North Richland Hills, TX","userLocation":"Shanghai China","date":"2020-02-02T20:15:27+00:00"}
{"id":1224060932399280133,"conversationId":1223344021080346629,"content":"@TriBeCaDad @ThePlatypusesTX It didn‚Äôt have a filter so it wouldn‚Äôt have filtered out the virus if it was on the plane","latitude":29.522325,"longitude":-95.823268,"country":"United States","countryCode":"US","locationName":"Houston, TX","userLocation":"Texas, USA","date":"2020-02-02T20:04:02+00:00"}
{"id":1224005594950094850,"conversationId":1221103385295904769,"content":"Questions still not answered: how long is the virus alive on surfaces? How long is the incubation period? How is it people can be infected yet show zero symptoms? Why do some die and some do not? The variety of patients who have died is just that, a variety.","latitude":31.6206683,"longitude":-106.634874,"country":"United States","countryCode":"US","locationName":"El Paso, TX","userLocation":"TeXas, west of Hueco Tanks","date":"2020-02-02T16:24:09+00:00"}
{"id":1223810664973701120,"conversationId":1223810664973701120,"content":"Check out my latest post on my YouTube channel. The link is in my profile. Subscribe to my channel and share the videos! Thanks for watching! #lifeistooshort #corona #flowers‚Ä¶ https://t.co/6oDEvxBe58","latitude":35.3733,"longitude":-119.019,"country":"United States","countryCode":"US","locationName":"Bakersfield, CA","userLocation":"","date":"2020-02-02T03:29:34+00:00"}
{"id":1224060818150567938,"conversationId":1224060818150567938,"content":"Fuck Corona. Its Modelo time foo.\n.\n.\n.\n.\n.\n#soho #detroit #virgilabloh #offwhite #abathingape #bape #billionaireboysclub #420 #streetwear #brockhampton #nigo #startrak #love #bapesta #frankocean #tylerthecreator‚Ä¶ https://t.co/PrfriVytWB","latitude":42.3339,"longitude":-83.0478,"country":"United States","countryCode":"US","locationName":"Detroit, MI","userLocation":"DET ‚úàÔ∏èLA","date":"2020-02-02T20:03:35+00:00"}
{"id":1223850004479000577,"conversationId":1223845655711490048,"content":"@nbcsnl oh the wuhan @Burberry plaid facemask prop ...üò≤ .. the warnings are real","latitude":37.708075,"longitude":-122.514926,"country":"United States","countryCode":"US","locationName":"San Francisco, CA","userLocation":"San Francisco, CA","date":"2020-02-02T06:05:53+00:00"}
{"id":1223807858762035200,"conversationId":1223807858762035200,"content":"Institut Pasteur sequences the whole genome of the Wuhan coronavirus, 2019-nCoV https://t.co/gSJFaIvng6","latitude":43.749761,"longitude":-79.711527,"country":"Canada","countryCode":"CA","locationName":"Vaughan, Ontario","userLocation":"Faculty of Pharmacy, U Toronto","date":"2020-02-02T03:18:25+00:00"}
{"id":1224119932775993345,"conversationId":1224119932775993345,"content":"They make sure not to report how many aren't sick from the virus anymore each day. Just the bad stuff.","latitude":41.060737,"longitude":-80.811312,"country":"United States","countryCode":"US","locationName":"Austintown, OH","userLocation":"Internet","date":"2020-02-02T23:58:29+00:00"}
{"id":1224082788829126657,"conversationId":1224082788829126657,"content":"Keep in mind that these are not numbers, but livesüôè. #wuhan #cronovirus https://t.co/LKeJyCAlxU","latitude":33.6475029,"longitude":-84.576827,"country":"United States","countryCode":"US","locationName":"Atlanta, GA","userLocation":"","date":"2020-02-02T21:30:53+00:00"}
{"id":1224079352784138251,"conversationId":1224079352784138251,"content":"Great video and reporting on the China corona virus situation.\nhttps://t.co/rZr7MLEnse","latitude":42.6278013,"longitude":-82.976654,"country":"United States","countryCode":"US","locationName":"Macomb, MI","userLocation":"Macomb, MI","date":"2020-02-02T21:17:14+00:00"}
{"id":1224028763756752897,"conversationId":1224028763756752897,"content":"Predicting an incredibly in poor taste ad from Corona this SuperBowl.","latitude":35.001706,"longitude":-81.046876,"country":"United States","countryCode":"US","locationName":"Charlotte, NC","userLocation":"Your mom","date":"2020-02-02T17:56:13+00:00"}
{"id":1223962922042314752,"conversationId":1223961369059495937,"content":"@AstorAaron Found this: According to medics, the bird flu ‚Äì a highly contagious type of influenza virus that can be easily transmitted among humans. Unlike the current epidemic of the Wuhan coronavirus, however, the so-called bird flu is curable as WHO developed a vaccine against it","latitude":32.426057,"longitude":-90.205184,"country":"United States","countryCode":"US","locationName":"Madison, MS","userLocation":"Somewhere in Mississippi.","date":"2020-02-02T13:34:35+00:00"}
{"id":1223962022548819968,"conversationId":1223883527583866880,"content":"@Christine281072 @Realpersonpltcs No! The coronavirus devastating Wuhan Province is a unique one called \"2019 Novel Coronavirus (2019-nCoV)\". Coronaviruses are common throughout the world. I guarantee you've both had one or more before.\n\nhttps://t.co/H0R4ZMKxve","latitude":38.917578,"longitude":-84.7067967,"country":"United States","countryCode":"US","locationName":"Florence, KY","userLocation":"Northern Kentucky","date":"2020-02-02T13:31:00+00:00"}
{"id":1224071704869249026,"conversationId":1224071704869249026,"content":"people keep staring at me acting like i wont cough on them and give them corona virus","latitude":39.719801,"longitude":-80.519851,"country":"United States","countryCode":"US","locationName":"Pennsylvania, USA","userLocation":"Mercury","date":"2020-02-02T20:46:51+00:00"}
{"id":1224018988688138240,"conversationId":1224018988688138240,"content":"Corona virus  not getting me boys https://t.co/Jwbpf133wG","latitude":25.837092,"longitude":-106.645646,"country":"United States","countryCode":"US","locationName":"Texas, USA","userLocation":"510/254","date":"2020-02-02T17:17:22+00:00"}
{"id":1223987893254778882,"conversationId":1223987893254778882,"content":"#china handling of the CV at the earlier stage of the crisis before pandemic levels. #corona #virus https://t.co/eRbsaLtRPP","latitude":49.08609,"longitude":-123.304549,"country":"Canada","countryCode":"CA","locationName":"Richmond, British Columbia","userLocation":"Vancouver, Canada","date":"2020-02-02T15:13:49+00:00"}
{"id":1223826413616168960,"conversationId":1223826413616168960,"content":"#BlueDot correctly forecasted the virus would migrate from #WuhanCoronavirusOutbreak to Bangkok, Seoul, Taipei, and Tokyo.¬†https://t.co/abyDxnu4JI","latitude":33.2037607,"longitude":-111.972849,"country":"United States","countryCode":"US","locationName":"Chandler, AZ","userLocation":"Arizona","date":"2020-02-02T04:32:09+00:00"}
{"id":1224048530907713536,"conversationId":1224048530907713536,"content":"so we sold out of all these face mask people are getting because of this virus and this man got the nerve to ask me why . why what sir . we sold out because y‚Äôall are clearly buying them all !","latitude":30.354161,"longitude":-91.218994,"country":"United States","countryCode":"US","locationName":"Baton Rouge, LA","userLocation":"Baton Rouge, LA","date":"2020-02-02T19:14:46+00:00"}
{"id":1223839783216017416,"conversationId":1223744190397349890,"content":"@MadAboutMascara As I told him, his physics class should‚Äôve taught him I can‚Äôt go to Wuhan, lick an infected person &amp; fly home in the eight hour window I had.","latitude":37.443954,"longitude":-122.28853,"country":"United States","countryCode":"US","locationName":"Redwood City, CA","userLocation":"Silicon Valley, CA","date":"2020-02-02T05:25:16+00:00"}
{"id":1224118885475024897,"conversationId":1224118885475024897,"content":"Saw a dime on the ground and as tempting as it is, I am NOT risking the Corona","latitude":42.227797,"longitude":-71.191421,"country":"United States","countryCode":"US","locationName":"Boston, MA","userLocation":"Massachusetts, USA","date":"2020-02-02T23:54:19+00:00"}
{"id":1224068126452535297,"conversationId":1223789819073040384,"content":"@jeffstaple @corona Or they can do this!  Ha!üòÇ https://t.co/VXPkjPzG4s","latitude":39.60973,"longitude":-105.193475,"country":"United States","countryCode":"US","locationName":"Lakewood, CO","userLocation":"Denver, CO","date":"2020-02-02T20:32:38+00:00"}
{"id":1224030995269242880,"conversationId":1224030995269242880,"content":"next person that posts about that virus is getting blocked. y‚Äôall wanna be sick so bad lmao.","latitude":42.227797,"longitude":-71.191421,"country":"United States","countryCode":"US","locationName":"Boston, MA","userLocation":"Boston, MA","date":"2020-02-02T18:05:05+00:00"}
{"id":1223957750830522368,"conversationId":1223954119020417025,"content":"@_jayholiday Lol exactly it was something flu I forgot.. corona virus is a common term for sars was also a Coronavirus","latitude":25.9862279,"longitude":-80.248975,"country":"United States","countryCode":"US","locationName":"Hollywood, FL","userLocation":"VA","date":"2020-02-02T13:14:02+00:00"}
{"id":1223806231703257088,"conversationId":1223806231703257088,"content":"Very good info on this virus! https://t.co/TVLYVGeNkb","latitude":50.794298,"longitude":-114.728795,"country":"Canada","countryCode":"CA","locationName":"Rocky View County, Alberta","userLocation":"","date":"2020-02-02T03:11:57+00:00"}
{"id":1223803621533347841,"conversationId":1223803621533347841,"content":"Do I actually need anti virus software? People are saying no and that Windows Defender is good enough? Tell me things","latitude":53.395531,"longitude":-113.71368,"country":"Canada","countryCode":"CA","locationName":"Edmonton, Alberta","userLocation":"Edmonton, Alberta","date":"2020-02-02T03:01:35+00:00"}
{"id":1224112747824271361,"conversationId":1224112747824271361,"content":"Graham has lost his way..... he‚Äôs infected the the ‚Äòcorruption virus‚Äô that Trump carried into the Oval Office!! üò°ü§¨ https://t.co/VKSBD8XhlN","latitude":43.140088,"longitude":-79.209021,"country":"Canada","countryCode":"CA","locationName":"Niagara-on-the-Lake, Ontario","userLocation":"Ontario, Canada","date":"2020-02-02T23:29:56+00:00"}
{"id":1223971958091649024,"conversationId":1223414098614018057,"content":"@SpeakerPelosi Isn't this because of the Corna Virus","latitude":39.695193,"longitude":-84.307688,"country":"United States","countryCode":"US","locationName":"Dayton, OH","userLocation":"Wright-Patterson Air Force Bas","date":"2020-02-02T14:10:29+00:00"}
{"id":1223919215696060416,"conversationId":1223913924451586048,"content":"@TheRapunzel777 It‚Äôs kind of a scary year .. I think new virus may be fierce","latitude":36.9931101,"longitude":-102.051769,"country":"United States","countryCode":"US","locationName":"Kansas, USA","userLocation":"Kansas Missouri USA","date":"2020-02-02T10:40:54+00:00"}
{"id":1223825702228758528,"conversationId":1223825702228758528,"content":"Deaths outside China had to start somewhere.  \n\nAccording to ZeroHedge 137,000 patients are now under observation for the virus.   \n\nStaggering numbers. \n\n#Coronarivus https://t.co/CXIBxJXa8x","latitude":39.197211,"longitude":-76.7115205,"country":"United States","countryCode":"US","locationName":"Baltimore, MD","userLocation":"Charm City","date":"2020-02-02T04:29:19+00:00"}
{"id":1224117655545810944,"conversationId":1224117655545810944,"content":"Great thread.  Need to take the long view and not act for the sake of acting. Not a political point this is our self interest in minimizing the virus‚Äôs disruption of life health and well being https://t.co/CK1JDzrMpH","latitude":42.352429,"longitude":-71.160356,"country":"United States","countryCode":"US","locationName":"Cambridge, MA","userLocation":"Boston, MA","date":"2020-02-02T23:49:26+00:00"}
{"id":1224084086605545472,"conversationId":1224035163501285376,"content":"@Michael_Khouw Do those masks really work? I thought they only kept out larger toxins. A virus is microscopic.","latitude":33.29026,"longitude":-112.3239143,"country":"United States","countryCode":"US","locationName":"Phoenix, AZ","userLocation":"","date":"2020-02-02T21:36:03+00:00"}
{"id":1224032473081958401,"conversationId":1224032473081958401,"content":"That virus getting worse bitch I‚Äôm not playing we not matching nomore that‚Äôs dead","latitude":30.354161,"longitude":-91.218994,"country":"United States","countryCode":"US","locationName":"Baton Rouge, LA","userLocation":"Baby russia","date":"2020-02-02T18:10:57+00:00"}
{"id":1223987208048271360,"conversationId":1223987208048271360,"content":"I still think this Corona virus is a distraction from something","latitude":42.826008,"longitude":-78.912276,"country":"United States","countryCode":"US","locationName":"Buffalo, NY","userLocation":"Studio ","date":"2020-02-02T15:11:05+00:00"}
{"id":1223981913079193601,"conversationId":1223981913079193601,"content":"If it actually said corona virus I‚Äôm done https://t.co/ObxKSU1s4N","latitude":26.206136,"longitude":-80.1955611,"country":"United States","countryCode":"US","locationName":"Pompano Beach, FL","userLocation":"Boca Raton, FL","date":"2020-02-02T14:50:03+00:00"}
{"id":1223947139119751170,"conversationId":1223640662689689602,"content":"@realDonaldTrump So you can golf while there is a virus killing ppl ..... hmmm sounds like someone could careless....","latitude":39.631677,"longitude":-86.348441,"country":"United States","countryCode":"US","locationName":"Indianapolis, IN","userLocation":"","date":"2020-02-02T12:31:52+00:00"}
{"id":1223977103613399041,"conversationId":1223977103613399041,"content":"Careful out there as a #media consumer. #wuflu #wuhan #WARS #coronavirus #WuhanCoronavirus #SundayThoughts https://t.co/EkDIQ9CaC0","latitude":36.540739,"longitude":-83.67529,"country":"United States","countryCode":"US","locationName":"Virginia, USA","userLocation":"Richmond, Virginia","date":"2020-02-02T14:30:56+00:00"}
{"id":1223986632069697537,"conversationId":1223986632069697537,"content":"i really hope my brothers aren‚Äôt getting bullied in school over this virus, i‚Äôve seen a lot of ‚Äúi don‚Äôt wanna be around chinese people‚Äù bs &amp; kids can be mean","latitude":26.476484,"longitude":-80.173447,"country":"United States","countryCode":"US","locationName":"Boynton Beach, FL","userLocation":"some girl from the BXüáµüá∑","date":"2020-02-02T15:08:48+00:00"}
{"id":1223979311994220546,"conversationId":1223924447066886144,"content":"@PINAYJD A good friend of mine @RissmanTamara is an epidemiologist at Yale Univ.  she said, ‚ÄúI understand the importance of watching the spread of this virus, but statistically you‚Äôre still more likely to get the flu üò∑.‚Äù  Get a flu shot üíâ...","latitude":34.76677,"longitude":-82.259333,"country":"United States","countryCode":"US","locationName":"Five Forks, SC","userLocation":"Simpsonville, SC","date":"2020-02-02T14:39:43+00:00"}
{"id":1224118250469916672,"conversationId":1223782825171701760,"content":"@SamGolbach What‚Äôs upsetting here isn‚Äôt that many people have died due to this virus (only about 2% of those diagnosed). It‚Äôs the racist connotation it now has. If you were of Asian decent, people would be more likely to react poorly to this. Check yourself, this is disappointing.","latitude":45.625349,"longitude":-111.185677,"country":"United States","countryCode":"US","locationName":"Bozeman, MT","userLocation":"Bozeman, MT","date":"2020-02-02T23:51:48+00:00"}
{"id":1224063162292625408,"conversationId":1224063162292625408,"content":"throwback to when i had the corona virus üòÇ just jk https://t.co/wjGhiiV4sA","latitude":39.719801,"longitude":-80.519851,"country":"United States","countryCode":"US","locationName":"Pennsylvania, USA","userLocation":"Mercury","date":"2020-02-02T20:12:54+00:00"}
{"id":1224036912081534976,"conversationId":1224036912081534976,"content":"figured out how corona virus started https://t.co/CnziW5MuSj","latitude":40.570842,"longitude":-74.041878,"country":"United States","countryCode":"US","locationName":"Brooklyn, NY","userLocation":"Brooklyn","date":"2020-02-02T18:28:36+00:00"}
{"id":1223848842476437507,"conversationId":1223755454301396992,"content":"@QuancyClayborne Wow...thinking somewhere in China maybe..WuHan has been around a long time. But could be elsewhere.","latitude":41.991795,"longitude":-124.703541,"country":"United States","countryCode":"US","locationName":"Oregon, USA","userLocation":"Hillsboro Oregon","date":"2020-02-02T06:01:16+00:00"}
{"id":1224071831201533952,"conversationId":1224071831201533952,"content":"Winter in California. Let‚Äôs have a water balloon fight (medical gloves really) in our bikinis. ü§∑üèº‚Äç‚ôÇÔ∏è @ Corona del Mar, California https://t.co/4nz0SUnc4G","latitude":33.59552,"longitude":-117.86996,"country":"United States","countryCode":"US","locationName":"Newport Beach, CA","userLocation":"","date":"2020-02-02T20:47:21+00:00"}
{"id":1224071081524248576,"conversationId":1224034380869324800,"content":"@JoshDWalrath Also there are a lot of host intrusion protection programs as well as virus scanners (gov't mandated stuff) and those alone really bog down our systems. I've been doing this job since the transition from Win 2000 to XP, but Win 10 seems so much quicker after reimage.","latitude":32.53962,"longitude":-117.282538,"country":"United States","countryCode":"US","locationName":"San Diego, CA","userLocation":"San Diego, CA","date":"2020-02-02T20:44:22+00:00"}
{"id":1223995585520455680,"conversationId":1223995585520455680,"content":"Amen üôè America y‚Äôall better have the blood ü©∏ of Christ or the Corona virus ü¶† won‚Äôt touch God‚Äôs sons America the beautiful we are blessed to have God in America https://t.co/ym1rvQuF5i https://t.co/wzsHY1ZHjf","latitude":40.3615796,"longitude":-80.095586,"country":"United States","countryCode":"US","locationName":"Pittsburgh, PA","userLocation":"","date":"2020-02-02T15:44:22+00:00"}
{"id":1223970355275894785,"conversationId":1223828717203406848,"content":"@CNyren @CNN @UCBerkeley ‚ÄúA new study by University of Hong Kong scientists in @TheLancet said as many as 75,815 people in Wuhan have been infected, the outbreak could be even worse than it appears and could get dramatically worse over the next week or two‚Äù https://t.co/DjVfepqibr from @nytimes","latitude":40.994746,"longitude":-111.056888,"country":"United States","countryCode":"US","locationName":"Wyoming, USA","userLocation":"Baltimore DC NYC SF Seattle","date":"2020-02-02T14:04:07+00:00"}
{"id":1223872342331252738,"conversationId":1223872342331252738,"content":"First Corona Virus death outside China... Philippines... where I am planning to fly to in two weeks... uhm.","latitude":47.860402,"longitude":-122.234054,"country":"United States","countryCode":"US","locationName":"Eastmont, WA","userLocation":"The PNW","date":"2020-02-02T07:34:39+00:00"}
{"id":1223811340906717185,"conversationId":1223811340906717185,"content":"The SARS outbreak was a dress rehearsal for the current corona ü¶† outbreak,fires in Australia,etc. What I said then is even truer now: science and global collaboration are indeed best of humanity. Thanks for that timely reminder @DrJaishah https://t.co/54sGQDmzm7","latitude":43.403221,"longitude":-79.639319,"country":"Canada","countryCode":"CA","locationName":"Toronto, Ontario","userLocation":"Toronto","date":"2020-02-02T03:32:15+00:00"}
{"id":1224029021605957632,"conversationId":1224028405340999686,"content":"Auto deaths are a needless and horrible tragedy, but the challenge is that they are chronic. We learn to live with the death rate. There is no chance auto deaths suddenly spike and kill 10 million next year. With a virus, that is a real (some say inevitable) possibility.","latitude":44.78542,"longitude":-93.399443,"country":"United States","countryCode":"US","locationName":"Bloomington, MN","userLocation":"Brainerd, MN","date":"2020-02-02T17:57:14+00:00"}
{"id":1223981300891209728,"conversationId":1223981299947462656,"content":"\"There are a few threads to untangle in this recent wave of Sinophobia. As Palmer writes for¬†Foreign Policy, the supposition that Wuhan‚Äôs Huanan Seafood Market is the source of the outbreak has not yet been confirmed. According to¬†a study in the¬†Lancet¬†by Chinese researchers","latitude":34.982924,"longitude":-90.310298,"country":"United States","countryCode":"US","locationName":"Tennessee, USA","userLocation":"Unionville, TN","date":"2020-02-02T14:47:37+00:00"}
{"id":1224009912004620289,"conversationId":1224009912004620289,"content":"While the #sheeple are fed mindless #nfl fodder of chicken wings and beer...i wonder if the stadium will be infected by the corona virus....","latitude":29.823923,"longitude":-94.053284,"country":"United States","countryCode":"US","locationName":"Port Arthur, TX","userLocation":"old salem","date":"2020-02-02T16:41:18+00:00"}
{"id":1223919879226646530,"conversationId":1223913924451586048,"content":"@TheRapunzel777 And they only speculate never know what virus they are inoculating against","latitude":36.9931101,"longitude":-102.051769,"country":"United States","countryCode":"US","locationName":"Kansas, USA","userLocation":"Kansas Missouri USA","date":"2020-02-02T10:43:33+00:00"}
{"id":1223858402012450818,"conversationId":1223833629744357377,"content":"@PeevishPenman @MoniqueSankay Yeah: flu might kill 60x more in total because it's everywhere, but it seems the Wuhan coronavirus is 10x more fatal than flu, so if it ended up infecting as many people as flu does then many millions would be dead.","latitude":32.53962,"longitude":-117.282538,"country":"United States","countryCode":"US","locationName":"San Diego, CA","userLocation":"San Diego, CA","date":"2020-02-02T06:39:15+00:00"}
{"id":1224106358712274945,"conversationId":1224102149686267904,"content":"@Ty_Etten I‚Äôll happily watch the world burn on a patio with my dog and a corona in hand","latitude":36.9931101,"longitude":-102.051769,"country":"United States","countryCode":"US","locationName":"Kansas, USA","userLocation":"Martin, TN","date":"2020-02-02T23:04:33+00:00"}
{"id":1224002380213161984,"conversationId":1224000903553806337,"content":"@majorgauravarya 7...\n\n\"A reconstruction of the crucial seven weeks between the appearance of the first symptoms in early December and the government‚Äôs decision to lock down the city, based on two dozen interviews with Wuhan residents, doctors and officials...\" https://t.co/i3airK5OTX","latitude":30.355644,"longitude":-85.605166,"country":"United States","countryCode":"US","locationName":"Georgia, USA","userLocation":"","date":"2020-02-02T16:11:22+00:00"}
{"id":1223988548992487429,"conversationId":1223988548992487429,"content":"Everyone that ever put a rose between their teeth to be seductive got a flesh eating virus.","latitude":34.994192,"longitude":-90.135782,"country":"United States","countryCode":"US","locationName":"Memphis, TN","userLocation":"Midtown, Memphis, Tn","date":"2020-02-02T15:16:25+00:00"}
{"id":1223963462692458496,"conversationId":1223963462692458496,"content":"Communication is ‚ùóÔ∏èfor outbreak response, but not if it gives a false sense of security.\n\n‚Äú[Wuhan officials] suggested they had stopped the virus at its source. The cluster of illnesses was limited. There was no evidence the virus spread between humans.‚Äù\nhttps://t.co/PEZ7acKxz7","latitude":41.246404,"longitude":-72.998069,"country":"United States","countryCode":"US","locationName":"New Haven, CT","userLocation":"New Haven, CT","date":"2020-02-02T13:36:44+00:00"}
{"id":1223855868581765122,"conversationId":1223831967629762561,"content":"@iwrenchi19 @issoxwadey Excellent point. Viruses mutate. The original virus is usually the strongest. The secondary and later infections often are not as bad. They can go both ways. The later mutations can be easier or worse. Too early to tell. That is the cause for panic. That was an excellent question","latitude":39.871811,"longitude":-75.280284,"country":"United States","countryCode":"US","locationName":"Philadelphia, PA","userLocation":"Cape May, NJ","date":"2020-02-02T06:29:11+00:00"}
{"id":1224010012478988288,"conversationId":1224003811624325120,"content":"@mmpadellan I‚Äôm here for all of your Trump/GOP outrage. Those subjects offer ample opportunity to complain without dwelling on Twitter users‚Äô spelling of the Corona Virus. Let‚Äôs not undercut the message with blanket expressions of outrage.","latitude":47.4953154,"longitude":-122.436232,"country":"United States","countryCode":"US","locationName":"Seattle, WA","userLocation":"","date":"2020-02-02T16:41:42+00:00"}
{"id":1224092046203478017,"conversationId":1223695517625937920,"content":"@ElijahSchaffer @MsAvaArmstrong @SpeakerPelosi @ScottPresler And we are supposed to be worried about a virus from China? What kind are running around in that street?","latitude":30.144425,"longitude":-88.473228,"country":"United States","countryCode":"US","locationName":"Alabama, USA","userLocation":"Destin, FL","date":"2020-02-02T22:07:41+00:00"}
{"id":1224073138998259719,"conversationId":1224073138998259719,"content":"Lol Simpsons predicted Corona in 1993 https://t.co/wHSbOQEtl9","latitude":43.403221,"longitude":-79.639319,"country":"Canada","countryCode":"CA","locationName":"Toronto, Ontario","userLocation":"Scarbz ","date":"2020-02-02T20:52:33+00:00"}
{"id":1224044911520956417,"conversationId":1224044911520956417,"content":"Corona virus seems to be affecting only adults most severly. So in other words, the world is not gunna end, all the old heads might just die off ‚ôªÔ∏è","latitude":32.528832,"longitude":-124.482003,"country":"United States","countryCode":"US","locationName":"California, USA","userLocation":"","date":"2020-02-02T19:00:23+00:00"}
{"id":1223843245689593857,"conversationId":1223831967629762561,"content":"@issoxwadey This may have been a virus they were trying to weaponize. It's not a normal mutation. It's not fully weaponized but it could kill millions","latitude":39.871811,"longitude":-75.280284,"country":"United States","countryCode":"US","locationName":"Philadelphia, PA","userLocation":"Cape May, NJ","date":"2020-02-02T05:39:02+00:00"}
{"id":1223831806312665089,"conversationId":1223831806312665089,"content":"Count your blessings @MittRomney . You will be spared the Trumpublican virus that has afflicted @GOPSenate @LindseyGrahamSC @senatemajldr #MoscowMitch @ https://t.co/j5YaHKJhJw","latitude":45.035979,"longitude":-92.86315,"country":"United States","countryCode":"US","locationName":"Stillwater, MN","userLocation":"Stillwater, Minnesota","date":"2020-02-02T04:53:34+00:00"}
{"id":1224049866285993986,"conversationId":1224049866285993986,"content":"There‚Äôs a new virus coming from Brasil that starts with fever! This doesn‚Äôt sound right tho. Is this big pharma fighting back? üßêüßêüßê","latitude":29.522325,"longitude":-95.823268,"country":"United States","countryCode":"US","locationName":"Houston, TX","userLocation":"","date":"2020-02-02T19:20:04+00:00"}
{"id":1224030125618012160,"conversationId":1223662933722439688,"content":"@caskwoodworking @WorkbenchCon That will be a great trip in its own right.  Make sure to inoculate yourself with plenty of Corona. ü§£","latitude":33.818392,"longitude":-84.042837,"country":"United States","countryCode":"US","locationName":"Snellville, GA","userLocation":"Lilburn, GA","date":"2020-02-02T18:01:37+00:00"}
{"id":1224114662435950605,"conversationId":1224114662435950605,"content":"As the UAE provides medical treatment to 5 patients with confirmed 2019-nCoV who have arrived from Wuhan, it sends a reminder to everyone that there is no place for racism in our country. https://t.co/rtvXGcuTBr","latitude":43.403221,"longitude":-79.639319,"country":"Canada","countryCode":"CA","locationName":"Toronto, Ontario","userLocation":"Dubai / Abu Dhabi / Toronto","date":"2020-02-02T23:37:33+00:00"}
{"id":1223942229514969088,"conversationId":1223942229514969088,"content":"China Virus Turns Macau Into Gambling Ghost Town https://t.co/YzeZFr4FYa","latitude":39.321048,"longitude":-74.596032,"country":"United States","countryCode":"US","locationName":"Linwood, NJ","userLocation":"Linwood NJ","date":"2020-02-02T12:12:21+00:00"}
{"id":1224043060318867461,"conversationId":1224017628345225217,"content":"@B52Malmet @jodotcom @HillBeverlyhill If the corona virus continues our economy along with trade is in jeopardy along with the health of American people. Don‚Äôt trust the CDC.","latitude":24.396308,"longitude":-87.634643,"country":"United States","countryCode":"US","locationName":"Florida, USA","userLocation":"florida","date":"2020-02-02T18:53:01+00:00"}
{"id":1223966056227590144,"conversationId":1223966056227590144,"content":"In @Canada #racism is more important than public safety. #coronovirusoutbreak #Coronarivus #China #Mainland China #5G #virus #Viral #selfcare #BREAKING #coronavirus #Constitution_Of_SupremeGod #EgoIsComing #Fast9 https://t.co/LqLDCG8j4A","latitude":48.996964,"longitude":-120.001814,"country":"Canada","countryCode":"CA","locationName":"Alberta, Canada","userLocation":"Alberta ","date":"2020-02-02T13:47:02+00:00"}
{"id":1224089865454682112,"conversationId":1224089865454682112,"content":"Will celebrate #SuperBowl2020 with tribute to the #CoronarivusOutbreak with lots of Corona Beers üçª \n#GoChiefsGo \n#GoMahomes and the #Underdogs","latitude":50.542911,"longitude":-111.929045,"country":"Canada","countryCode":"CA","locationName":"Brooks, Alberta","userLocation":"","date":"2020-02-02T21:59:01+00:00"}
{"id":1224046263634665474,"conversationId":1224046263634665474,"content":"Important info about The Corona Virus. #tonews https://t.co/n5dku2X0ou","latitude":43.829311,"longitude":-79.485633,"country":"Canada","countryCode":"CA","locationName":"Richmond Hill, Ontario","userLocation":"","date":"2020-02-02T19:05:45+00:00"}
{"id":1224006061277044736,"conversationId":1223911748475985920,"content":"@AskmoreNorman In the article it states, if ill, to have a friend, relatives, or someone close to you to take your children to school for you?? Would their children not be carriers of the virus?! Very scary!","latitude":37.674128,"longitude":-87.9329113,"country":"United States","countryCode":"US","locationName":"Morganfield, KY","userLocation":"Everywhere","date":"2020-02-02T16:26:00+00:00"}
{"id":1224005870280957952,"conversationId":1224005870280957952,"content":"BSC is mobilizing local&amp;global resources to support China‚Äôs Coronavirus combat @bsc_pi #CoronarvirusOutbreak Fighting, Wuhan‚úåÔ∏è https://t.co/abyE4z87In","latitude":29.522325,"longitude":-95.823268,"country":"United States","countryCode":"US","locationName":"Houston, TX","userLocation":"Texas, USA","date":"2020-02-02T16:25:15+00:00"}
{"id":1223956625150611456,"conversationId":1223653745747222528,"content":"@DrDenaGrayson @kengoodinCDA @D_Blanchflower @IdeaGov @thespybrief Media started spreading the common cold = corona virus early on and that took hold.","latitude":38.788657,"longitude":-75.563587,"country":"United States","countryCode":"US","locationName":"New Jersey, USA","userLocation":"South Jersey/Philadelphia","date":"2020-02-02T13:09:34+00:00"}
{"id":1223836542092734464,"conversationId":1223833110657159168,"content":"@siwiK07 @MitchieBluWolf Well I was great until I find out the first death of the Virus outside of China is in the Philippines, meaning it can spread and kill all of us https://t.co/SWCMSMchOS","latitude":38.43792,"longitude":-121.576613,"country":"United States","countryCode":"US","locationName":"Sacramento, CA","userLocation":"HELL (üá∫üá∏)","date":"2020-02-02T05:12:24+00:00"}
{"id":1223922417925406722,"conversationId":1223922417925406722,"content":"The Wuhan to Indonesia flight wasn‚Äôt exactly greeted with flowers. https://t.co/3HhDqe4Lte","latitude":45.426386,"longitude":-122.867581,"country":"United States","countryCode":"US","locationName":"Beaverton, OR","userLocation":"Oregon","date":"2020-02-02T10:53:38+00:00"}
{"id":1224019773350019072,"conversationId":1224015138073776128,"content":"@TravisAllen02 @CompTIA Just in time!!!  My computer has a virus!!!","latitude":31.3322463,"longitude":-114.818269,"country":"United States","countryCode":"US","locationName":"Arizona, USA","userLocation":"phoenix, az","date":"2020-02-02T17:20:29+00:00"}
{"id":1223899942957154306,"conversationId":1223899942957154306,"content":"Japan succeeds in isolating Wuhan coronavirus in step toward vaccine and test kit.\n#coronavirus\n\nhttps://t.co/UwoDZdWlyv","latitude":37.406339,"longitude":-122.191291,"country":"United States","countryCode":"US","locationName":"Stanford, CA","userLocation":"Africa","date":"2020-02-02T09:24:20+00:00"}
{"id":1223808384773906432,"conversationId":1223808384773906432,"content":"This virus ain‚Äôt slowing down https://t.co/0x9UgISSBN","latitude":45.410095,"longitude":-73.972965,"country":"Canada","countryCode":"CA","locationName":"Montr√©al, Qu√©bec","userLocation":"Canada","date":"2020-02-02T03:20:30+00:00"}
{"id":1223966300478824448,"conversationId":1223966300478824448,"content":"So many people going down to Florida to see the Super Bowl and no one is more excited than the corona-Virus","latitude":35.016441,"longitude":-82.036159,"country":"United States","countryCode":"US","locationName":"Boiling Springs, SC","userLocation":"Boiling Springs ,SC","date":"2020-02-02T13:48:00+00:00"}
{"id":1224029704635781120,"conversationId":1224029704635781120,"content":"Me doomsday prepping for the corona virus, yet I haven‚Äôt gotten a flu shot in 5 years https://t.co/zM64aoRqKi","latitude":40.683935,"longitude":-74.026675,"country":"United States","countryCode":"US","locationName":"Manhattan, NY","userLocation":"New York, NY","date":"2020-02-02T17:59:57+00:00"}
{"id":1223856151932100609,"conversationId":1221990534643929089,"content":"@DrEricDing Hi.  I have a direct contact in Wuhan. There are many infectious people being turned away from the hospitals from not enough doctors and nurses and beds. Their frustration is to purposely infect others. They are afraid to leave apt.  Govt does not know what to do","latitude":43.749761,"longitude":-79.711527,"country":"Canada","countryCode":"CA","locationName":"Vaughan, Ontario","userLocation":"Toronto, Ontario","date":"2020-02-02T06:30:19+00:00"}
{"id":1224120124841398278,"conversationId":1224055853050945540,"content":"@okbiiiitch Are there any Corona's ü§î","latitude":31.3322463,"longitude":-114.818269,"country":"United States","countryCode":"US","locationName":"Arizona, USA","userLocation":"Arizona","date":"2020-02-02T23:59:15+00:00"}
{"id":1223996256009293828,"conversationId":1223996256009293828,"content":"Whoa!  A doggie virus ü¶† https://t.co/mHw2qJ3svM","latitude":40.089317,"longitude":-75.139042,"country":"United States","countryCode":"US","locationName":"Jenkintown, PA","userLocation":"Jenkintown, PA","date":"2020-02-02T15:47:02+00:00"}
{"id":1223940675269320704,"conversationId":1222907159916056576,"content":"@etlifestyle_web \"Grab a Corona\" - Sweet Jesus, that's brilliant! Cheers! &lt;wink&gt;&lt;notcough&gt;&lt;wineintowatermotherfckrs&gt;","latitude":42.255085,"longitude":-83.288056,"country":"United States","countryCode":"US","locationName":"Detroit, MI","userLocation":"alivestalive@gmail.com","date":"2020-02-02T12:06:11+00:00"}
{"id":1223875099616563200,"conversationId":1223875099616563200,"content":"Highkey this corona virus is really freaking me out...","latitude":41.644102,"longitude":-87.940033,"country":"United States","countryCode":"US","locationName":"Chicago, IL","userLocation":"Chicago, IL","date":"2020-02-02T07:45:36+00:00"}
{"id":1223848883417010176,"conversationId":1223848883417010176,"content":"Wuhan!! I got you all infect-ed (Busta Rhymes voice)","latitude":33.625179,"longitude":-117.954201,"country":"United States","countryCode":"US","locationName":"Costa Mesa, CA","userLocation":"Los Angeles, CA","date":"2020-02-02T06:01:26+00:00"}
{"id":1224060757207240704,"conversationId":1224060757207240704,"content":"current weather in Corona: clear sky, 69¬∞F\n22% humidity, wind 10mph, pressure 1016mb","latitude":33.88,"longitude":-117.58,"country":"United States","countryCode":"US","locationName":"Corona, CA","userLocation":"Corona, CA","date":"2020-02-02T20:03:21+00:00"}
{"id":1224044728951410688,"conversationId":1223730330126909440,"content":"@AndrewLawton @TrueNorthCentre Plain bullshit at its best... #coronavirus is not a #ClimateChange but escaped from a bio warfare laboratory from Wuhan","latitude":43.286245,"longitude":-79.959313,"country":"Canada","countryCode":"CA","locationName":"Burlington, Ontario","userLocation":"","date":"2020-02-02T18:59:39+00:00"}
{"id":1224000398253600773,"conversationId":1224000398253600773,"content":"Corona CA Sun Feb 2nd AM Forecast: TODAY Mostly Sunny Hi 75 TONIGHT Chance Of Showers Lo 39","latitude":33.8752,"longitude":-117.5655,"country":"United States","countryCode":"US","locationName":"Corona, CA","userLocation":"Corona, CA","date":"2020-02-02T16:03:30+00:00"}
{"id":1223912485067116544,"conversationId":1223728186682486785,"content":"@MidtownChico The discussion should be about a very serious single strand RNA virus.","latitude":35.160156,"longitude":-79.520509,"country":"United States","countryCode":"US","locationName":"Pinehurst, NC","userLocation":"Sea Island, GA ","date":"2020-02-02T10:14:10+00:00"}
{"id":1224093203856416769,"conversationId":1224089478068953090,"content":"@RedNationRising So much more than they are telling us!  Sounds like they might have weaponized a virus that got away from them","latitude":32.528832,"longitude":-124.482003,"country":"United States","countryCode":"US","locationName":"California, USA","userLocation":"","date":"2020-02-02T22:12:17+00:00"}
{"id":1224036296970199041,"conversationId":1224036296970199041,"content":"Three cases of Corlna virus in all of Canada. A wee bit of panic. Mwdical face masks for $19.99/pkge. Priceless! @ Toronto, Ontario https://t.co/9yxtKqonDq","latitude":43.648,"longitude":-79.3872,"country":"Canada","countryCode":"CA","locationName":"Toronto, Ontario","userLocation":"Toronto","date":"2020-02-02T18:26:09+00:00"}
{"id":1223822486229471232,"conversationId":1223822486229471232,"content":"These are my favorite kind of stories about the virus because they remind me of my dad. ‚ÄúYou want something to be worried about? Oh, I‚Äôll give you something to be worried about.‚Äù https://t.co/FRgNKK31CH","latitude":30.127892,"longitude":-97.928935,"country":"United States","countryCode":"US","locationName":"Austin, TX","userLocation":"√úT: 30.195185,-97.863305","date":"2020-02-02T04:16:32+00:00"}
{"id":1223820305103237121,"conversationId":1223820305103237121,"content":"How much you wanna bet the cure to the virus is a flu shot.","latitude":40.570842,"longitude":-74.041878,"country":"United States","countryCode":"US","locationName":"Brooklyn, NY","userLocation":"Flatbush","date":"2020-02-02T04:07:52+00:00"}
{"id":1224057005607809024,"conversationId":1224057005607809024,"content":"Yay going to urgent care on a Sunday morning. (Disclaimer not Corona)","latitude":47.4300912,"longitude":-122.2128342,"country":"United States","countryCode":"US","locationName":"Fairwood, WA","userLocation":"Seattle, WA","date":"2020-02-02T19:48:26+00:00"}
{"id":1223812486673072130,"conversationId":1223812486673072130,"content":"Don‚Äôt care about the corona virus anymore. I‚Äôd rather just get it at this point and get the immunity for the next time around","latitude":40.570842,"longitude":-74.041878,"country":"United States","countryCode":"US","locationName":"Brooklyn, NY","userLocation":"","date":"2020-02-02T03:36:48+00:00"}
{"id":1223966046379565056,"conversationId":1223966046379565056,"content":"What are feminists doing about the Corona virus?ü§î","latitude":32.771786,"longitude":-97.034184,"country":"United States","countryCode":"US","locationName":"Irving, TX","userLocation":"Texas","date":"2020-02-02T13:47:00+00:00"}
{"id":1223858333033160704,"conversationId":1223853740517662721,"content":"@imtrapbitchwhou No wonder everybody got the carona  virus üò≠üò≠üò≠","latitude":35.962623,"longitude":-80.0295184,"country":"United States","countryCode":"US","locationName":"Greensboro, NC","userLocation":"","date":"2020-02-02T06:38:59+00:00"}
{"id":1224046368282382337,"conversationId":1222551674000068608,"content":"@TheEY0913 @jemelehill @espn It's the DosXX's virus that causes me to act like this. Now you know.","latitude":33.4358637,"longitude":-111.960775,"country":"United States","countryCode":"US","locationName":"Scottsdale, AZ","userLocation":"","date":"2020-02-02T19:06:10+00:00"}
{"id":1223866356359213061,"conversationId":1223704179333529600,"content":"@LoveDVoiceless @AmandaRoss_1313 @Nenagh9 @Energy_Yiji @LazDbq @Michele_NRA_Q @Ash_Pro1 @lee_ludlow_art @catcontentonly @TAGSandeep @TheRealGeorgia3 @SuccessGentr @JoeRaffo @MysticalPanda88 @lamisshejni @TamaraTamara142 @angnd97 @PepeNature @Alabasterade @wishykeely There have been no Tweets on dog/cat meat trade, China, corona virus lately. Is Twitter blocking? Is China threatening?","latitude":43.279784,"longitude":-87.980941,"country":"United States","countryCode":"US","locationName":"Grafton, WI","userLocation":"","date":"2020-02-02T07:10:52+00:00"}
{"id":1223849021602697216,"conversationId":1223849021602697216,"content":"#Wutang Update #virus @ Mavis Farmacy &amp; Ecology Lab https://t.co/IzRl4zfGQ1","latitude":37.58988308,"longitude":-81.10803193,"country":"United States","countryCode":"US","locationName":"West Virginia, USA","userLocation":"FEMA District III","date":"2020-02-02T06:01:59+00:00"}
{"id":1223994856583897090,"conversationId":1223994856583897090,"content":"Robert O‚ÄôBrien, he doesn‚Äôt inspire confidence re the Corona virus. He‚Äôs the National security advisor. He seems more like the rush chairman who‚Äôs back for homecoming.","latitude":34.994192,"longitude":-90.135782,"country":"United States","countryCode":"US","locationName":"Memphis, TN","userLocation":"Memphis TN","date":"2020-02-02T15:41:29+00:00"}
{"id":1223983608790167552,"conversationId":1223983606885949446,"content":"The spread was helped by China‚Äôs Lunar New Year holiday this month. Wuhan mayor Zhou Xianwang said 5 million people had left the city before travel restrictions were imposed ahead of the Chinese New Year. Ma Xiaowei, the director of China‚Äôs National Health Commission, said","latitude":34.982924,"longitude":-90.310298,"country":"United States","countryCode":"US","locationName":"Tennessee, USA","userLocation":"Unionville, TN","date":"2020-02-02T14:56:47+00:00"}
{"id":1223981302908694532,"conversationId":1223981299947462656,"content":"and doctors, more than 1/3 of the earliest known cases of this virus ‚Äî including the outbreak‚Äôs first known case ‚Äî¬†had no connection to the market. #Coronarivus","latitude":34.982924,"longitude":-90.310298,"country":"United States","countryCode":"US","locationName":"Tennessee, USA","userLocation":"Unionville, TN","date":"2020-02-02T14:47:37+00:00"}
{"id":1223957726046425089,"conversationId":1223957726046425089,"content":"An essential read on the intersection of Chinese politics, the Wuhan coronavirus, and global health nightmare scenarios. Via @ForeignPolicy : https://t.co/dGY9t5cvHC","latitude":41.175884,"longitude":-96.234587,"country":"United States","countryCode":"US","locationName":"Omaha, NE","userLocation":"Omaha, NE","date":"2020-02-02T13:13:56+00:00"}
{"id":1224034567776100352,"conversationId":1224034567776100352,"content":"My cousin Hmu and said No more Chinese takeout til this virus shit blow overüíÄ","latitude":35.001706,"longitude":-81.046876,"country":"United States","countryCode":"US","locationName":"Charlotte, NC","userLocation":"Charlotte, NC","date":"2020-02-02T18:19:17+00:00"}
{"id":1224063041798574080,"conversationId":1224063041798574080,"content":"You can spread it without symptoms and it can be inside you for two weeks b4 symptoms show. Scary and #manmade \n\nNew China virus details show challenge for outbreak control\n\nhttps://t.co/viUtI1r4Ey","latitude":33.6188,"longitude":-86.709501,"country":"United States","countryCode":"US","locationName":"Center Point, AL","userLocation":"Birmingham, AL","date":"2020-02-02T20:12:25+00:00"}
{"id":1223981202991910913,"conversationId":1223981202991910913,"content":"Today the Wuhan Hospital is packed with #coronavirus patients. 10 months from now it will be packed with new babies. #wuhanlockdown","latitude":42.162001,"longitude":-72.703482,"country":"United States","countryCode":"US","locationName":"Holyoke, MA","userLocation":"High Hopes","date":"2020-02-02T14:47:13+00:00"}
{"id":1223864554657964032,"conversationId":1223861740028325889,"content":"@luuciferer6 Corona police, are you gonna cite me officer?üôÉ","latitude":33.704538,"longitude":-118.668404,"country":"United States","countryCode":"US","locationName":"Los Angeles, CA","userLocation":"Boyle Heights","date":"2020-02-02T07:03:42+00:00"}
{"id":1224068139358486534,"conversationId":1224068139358486534,"content":"Keep your distance please #kfc #contactlessdelivery $yum #wuhan #cornonavirus #DeathStranding https://t.co/7m5bJEWOFA","latitude":40.899734,"longitude":-73.9845718,"country":"United States","countryCode":"US","locationName":"Tenafly, NJ","userLocation":"United States","date":"2020-02-02T20:32:41+00:00"}
{"id":1223864897471164418,"conversationId":1223864897471164418,"content":"I hate wearing these hospital masks fucking corona virusü§¨ü§¨ü§¨","latitude":40.541722,"longitude":-73.962582,"country":"United States","countryCode":"US","locationName":"Queens, NY","userLocation":"","date":"2020-02-02T07:05:04+00:00"}
{"id":1223857612850192384,"conversationId":1223857612850192384,"content":"There‚Äôs a virus on its way to kill us, so if anyone‚Äôs down to fuck.... lol just kidding... unless you‚Äôre down üëÄ","latitude":29.522325,"longitude":-95.823268,"country":"United States","countryCode":"US","locationName":"Houston, TX","userLocation":"Texas, USA","date":"2020-02-02T06:36:07+00:00"}
{"id":1224106510768394240,"conversationId":1224106510768394240,"content":"Beware of the bubblevirus floating around in world. The virus is in bubbles floating around in the atmosphere.","latitude":40.541722,"longitude":-73.962582,"country":"United States","countryCode":"US","locationName":"Queens, NY","userLocation":"New York","date":"2020-02-02T23:05:09+00:00"}
{"id":1223867256016257026,"conversationId":1223867256016257026,"content":"I think I have the Steve Corino virus, I'm bleeding spontaneously from the head","latitude":45.421863,"longitude":-122.7900653,"country":"United States","countryCode":"US","locationName":"Portland, OR","userLocation":"Seattle, WA","date":"2020-02-02T07:14:26+00:00"}
{"id":1223995980384735232,"conversationId":1223995980384735232,"content":"\"Contagion\" The King Virus - Act 88 - World War Z  \"Do You Believe In Co... https://t.co/QV6zKXA1VP via @YouTube #logicbeforeauthority","latitude":30.235705,"longitude":-89.853527,"country":"United States","countryCode":"US","locationName":"Slidell, LA","userLocation":"New Orleans, LA","date":"2020-02-02T15:45:57+00:00"}
{"id":1223990669557010432,"conversationId":1223990669557010432,"content":"Wuhan looks a lot like Toronto lots of condos #topoli https://t.co/CmvRqB4THB","latitude":43.403221,"longitude":-79.639319,"country":"Canada","countryCode":"CA","locationName":"Toronto, Ontario","userLocation":"TORONTO ","date":"2020-02-02T15:24:50+00:00"}
{"id":1223904204231729157,"conversationId":1223904204231729157,"content":"**cousin is drunk \nme: hey you good?\n\ncousin: ‚Äúyeah I had a few Corona‚Äôs and now I‚Äôm feelin that virus‚Äù \n\nI can‚Äôt üòÇüòÇüíÄüíÄ","latitude":38.335227,"longitude":-97.217815,"country":"United States","countryCode":"US","locationName":"Hillsboro, KS","userLocation":"","date":"2020-02-02T09:41:15+00:00"}
{"id":1223870109237895168,"conversationId":1223645884560351232,"content":"@therikran Drinkin Coronas to avoid this corona thing","latitude":34.982924,"longitude":-90.310298,"country":"United States","countryCode":"US","locationName":"Tennessee, USA","userLocation":"Nashville, TN","date":"2020-02-02T07:25:47+00:00"}
{"id":1223815032800260097,"conversationId":1223806499610406912,"content":"@bethbourdon I'm sure I can pivot this into a joke about Kobe related deaths being higher than US Corona deaths but I'm too lazy to research it send tweet","latitude":29.141956,"longitude":-98.778559,"country":"United States","countryCode":"US","locationName":"San Antonio, TX","userLocation":"The Chaos Realms","date":"2020-02-02T03:46:55+00:00"}
{"id":1224109247446650881,"conversationId":1223706721899565057,"content":"@pfishh @senrobportman Press conference about the virus from Miami today half an hour after kick off","latitude":37.052059,"longitude":-122.119424,"country":"United States","countryCode":"US","locationName":"Ben Lomond, CA","userLocation":"United States","date":"2020-02-02T23:16:02+00:00"}
{"id":1224100424623411200,"conversationId":1224099984657666048,"content":"My ass will probably end up on one with a virus. ü§¶üèΩ‚Äç‚ôÄÔ∏è","latitude":37.699279,"longitude":-122.34266,"country":"United States","countryCode":"US","locationName":"Oakland, CA","userLocation":"Bay Area, Cali","date":"2020-02-02T22:40:58+00:00"}
{"id":1223801666694270982,"conversationId":1223800294926143488,"content":"It explains why maps of places like Wuhan have roads in the middle of rivers. Nothing is shifted in the same direction, its moved in random directions using odd algorithms. https://t.co/Mo5vnsBJjR","latitude":31.6206683,"longitude":-106.634874,"country":"United States","countryCode":"US","locationName":"El Paso, TX","userLocation":"el paso | texas","date":"2020-02-02T02:53:49+00:00"}
{"id":1223967774063677440,"conversationId":1223967774063677440,"content":"Coronavirus Update: Virus May Have Already Infected 76,000 In Wuhan Alone #Topbuzz https://t.co/xXM62PIyrz","latitude":38.801044,"longitude":-81.735946,"country":"United States","countryCode":"US","locationName":"Ripley, WV","userLocation":"West Virginia, USA","date":"2020-02-02T13:53:52+00:00"}
{"id":1224031763082752000,"conversationId":1224031763082752000,"content":"China is building two new hospitals in Wuhan at the centre of the coronavirus outbreak, state media reports  https://t.co/P1sXMXjk4i","latitude":41.661662,"longitude":-71.534441,"country":"United States","countryCode":"US","locationName":"West Warwick, RI","userLocation":"","date":"2020-02-02T18:08:08+00:00"}
{"id":1224005241558970369,"conversationId":1224005241558970369,"content":"Wuhan clan ain't nothing to fuck with","latitude":42.826008,"longitude":-78.912276,"country":"United States","countryCode":"US","locationName":"Buffalo, NY","userLocation":"Buffalo, NY","date":"2020-02-02T16:22:45+00:00"}
{"id":1223956530229202944,"conversationId":1223956530229202944,"content":"Fort Carson could house at least 250 people quarantined by the Novel Coronavirus through February 29th.\nThe virus has taken the lives of more than 300 people in China, with the first death outside of the country reported in the Philippines. @740KVOR \n#WuhanVirus #Colorado https://t.co/4VcxAtiS4R","latitude":38.741142,"longitude":-104.910562,"country":"United States","countryCode":"US","locationName":"Colorado Springs, CO","userLocation":"Colorado Springs, Colorado","date":"2020-02-02T13:09:11+00:00"}
{"id":1224075228222853120,"conversationId":1224011562542718977,"content":"@KeeeeepIt100 The mask still doesn‚Äôt keep you safe bro. You still have your ears left wide open. Touching your face could still get you infected by the virus lol in better words we are fucked lmao","latitude":34.0270115,"longitude":-118.170463,"country":"United States","countryCode":"US","locationName":"Monterey Park, CA","userLocation":"Los Angeles ","date":"2020-02-02T21:00:51+00:00"}
{"id":1223999804642033664,"conversationId":1223999804642033664,"content":"So I need the corona virus üôÑ https://t.co/cq7qRoJS5U","latitude":38.801826,"longitude":-77.119401,"country":"United States","countryCode":"US","locationName":"Washington, DC","userLocation":"Washington, DC","date":"2020-02-02T16:01:08+00:00"}
{"id":1223969191931400196,"conversationId":1223969191931400196,"content":"Why was this guy even allowed to fly from Wuhan with a plane load of passengers to Boston?? Did the @CDCgov act too little too late?\n\nUS Confirms 8th Case of \nCoronavirus; Boston Man Who Traveled to Wuhan\n\nhttps://t.co/hnoU0zaudN","latitude":24.396308,"longitude":-87.634643,"country":"United States","countryCode":"US","locationName":"Florida, USA","userLocation":"Florida, USA","date":"2020-02-02T13:59:30+00:00"}
{"id":1223812237602775041,"conversationId":1223812237602775041,"content":"Went to snap maps to Wuhan, and there are hospital employees walking around in masks and guns ü§îü§î","latitude":29.4955658,"longitude":-98.7647213,"country":"United States","countryCode":"US","locationName":"Helotes, TX","userLocation":"","date":"2020-02-02T03:35:49+00:00"}
{"id":1224091016384266241,"conversationId":1224091016384266241,"content":"Why even eat these disgusting species....isn't there a whole lot of other sources of food. Good gosh!!!\n\nBats, the source of so many viruses, could be the origin of Wuhan coronavirus, say experts - CNN https://t.co/YsH6qwHe0X","latitude":53.395531,"longitude":-113.71368,"country":"Canada","countryCode":"CA","locationName":"Edmonton, Alberta","userLocation":"Edmonton Alberta Canada ","date":"2020-02-02T22:03:35+00:00"}
{"id":1224039590866096128,"conversationId":1224036910672175104,"content":"@BonnieEdgecomb What‚Äôs even more frightening is the fact we have cities in the US, which are in abysmal conditions, that are just incubators in which a virus like this will spread like wild fire. To top it off it‚Äôs not a matter of if it‚Äôs going to happen, but when it‚Äôs going to happen. https://t.co/LDLc5FxFGe","latitude":29.479235,"longitude":-90.356645,"country":"United States","countryCode":"US","locationName":"Cut Off, LA","userLocation":"Cut Off, LA, USA","date":"2020-02-02T18:39:14+00:00"}
{"id":1223995274764464128,"conversationId":1223990083801550848,"content":"@PaulyWalnutz54 @BetteMidler Amen...., she should move to Wuhan! Might be happy there??","latitude":37.562483,"longitude":-97.5349059,"country":"United States","countryCode":"US","locationName":"Wichita, KS","userLocation":"United States","date":"2020-02-02T15:43:08+00:00"}
{"id":1224096639398400006,"conversationId":1224096639398400006,"content":"I hope that virus don‚Äôt make its way to Houston.","latitude":29.522325,"longitude":-95.823268,"country":"United States","countryCode":"US","locationName":"Houston, TX","userLocation":"hou","date":"2020-02-02T22:25:56+00:00"}
{"id":1223877057559568384,"conversationId":1223877057559568384,"content":"WuHan #coronavirus wyd what it's like to have tho this https://t.co/RdCRA8aHaW","latitude":38.737756,"longitude":-90.5706573,"country":"United States","countryCode":"US","locationName":"St Charles, MO","userLocation":"United States","date":"2020-02-02T07:53:23+00:00"}
{"id":1223837777437122561,"conversationId":1223713702093836288,"content":"@charliekirk11 Even blame him for the war, and the virus","latitude":35.3315441,"longitude":-86.274689,"country":"United States","countryCode":"US","locationName":"Tullahoma, TN","userLocation":"Winchester, TN","date":"2020-02-02T05:17:18+00:00"}
{"id":1223984289152454658,"conversationId":1223984289152454658,"content":"Last day of OSHA 30 training and this mother fucker behind me is coughing like he‚Äôs got the corona virus. I better not be sick tomorrow. üò∑","latitude":43.026755,"longitude":-88.3043916,"country":"United States","countryCode":"US","locationName":"Pewaukee, WI","userLocation":"Milwaukee, WI","date":"2020-02-02T14:59:29+00:00"}
{"id":1223955923892346880,"conversationId":1223955923892346880,"content":"Corona NY Sun Feb 2nd AM Forecast: TODAY Mostly Cloudy Hi 45 TONIGHT Partly Cloudy Lo 31","latitude":40.7493,"longitude":-73.8531,"country":"United States","countryCode":"US","locationName":"Queens, NY","userLocation":"Corona, NY","date":"2020-02-02T13:06:46+00:00"}
{"id":1224104778755641344,"conversationId":1224104778755641344,"content":"Fight all the devils which come in a sheep's clothing, but also fight the Corona Virus coming in an invisible mask. May God protect all the good and honest people in America and the world from the evils and virus. Amen. https://t.co/JFxTOItpYI","latitude":40.37991,"longitude":-74.60247,"country":"United States","countryCode":"US","locationName":"Heathcote, NJ","userLocation":"New Jersey, USA","date":"2020-02-02T22:58:16+00:00"}
{"id":1223974744560750592,"conversationId":1223974744560750592,"content":"Vulcan Mountain Hospital was completed and delivered in ten days in Wuhan, China https://t.co/vibxOO2ERY via @YouTube","latitude":24.396308,"longitude":-87.634643,"country":"United States","countryCode":"US","locationName":"Florida, USA","userLocation":"Tampa, FL","date":"2020-02-02T14:21:34+00:00"}
{"id":1223944393687752704,"conversationId":1223944393687752704,"content":"Well hell I‚Äôd keep ten of ya but the rest of y‚Äôall can catch the corona virus","latitude":25.837092,"longitude":-106.645646,"country":"United States","countryCode":"US","locationName":"Texas, USA","userLocation":"","date":"2020-02-02T12:20:57+00:00"}
{"id":1223863695899578368,"conversationId":1223863695899578368,"content":"Had a corona with a lime im safe","latitude":40.683935,"longitude":-74.026675,"country":"United States","countryCode":"US","locationName":"Manhattan, NY","userLocation":"NYC | A mosh pit near you","date":"2020-02-02T07:00:18+00:00"}
{"id":1223853909837373441,"conversationId":1223853909837373441,"content":"This virus shit real","latitude":37.6345111,"longitude":-122.471871,"country":"United States","countryCode":"US","locationName":"South San Francisco, CA","userLocation":"","date":"2020-02-02T06:21:24+00:00"}
{"id":1223822580391411712,"conversationId":1223822580391411712,"content":"This corona virus hub bub is making me all kind of infuriated https://t.co/EpTyCovpKy","latitude":45.421863,"longitude":-122.7900653,"country":"United States","countryCode":"US","locationName":"Portland, OR","userLocation":"Portland, OR","date":"2020-02-02T04:16:55+00:00"}
{"id":1224047910888902656,"conversationId":1224047910888902656,"content":"moms just said my wig from China gon have the corona virus- ma‚Äôam https://t.co/jylpM5X7gO","latitude":25.837092,"longitude":-106.645646,"country":"United States","countryCode":"US","locationName":"Texas, USA","userLocation":"444","date":"2020-02-02T19:12:18+00:00"}
{"id":1223989124073312257,"conversationId":1223989124073312257,"content":"Hornets making the news in Seattle! Avoiding the virus! \n\nhttps://t.co/jaRQFLzAYj https://t.co/gBn79xaf5z","latitude":47.396426,"longitude":-122.326102,"country":"United States","countryCode":"US","locationName":"SeaTac, WA","userLocation":"Sacramento, CA","date":"2020-02-02T15:18:42+00:00"}
{"id":1224020292365766661,"conversationId":1223544181903069184,"content":"@sakijapanesegal The virus is everybody's problem at this point. Strange, I saw a conversation w/ people saying to keep the Americans on the way back in China instead. Where were they were supposed to go? They were quarantined to be sure there's no infection. Good enough for me.","latitude":34.0503113,"longitude":-117.401199,"country":"United States","countryCode":"US","locationName":"San Bernardino, CA","userLocation":"Southern CA","date":"2020-02-02T17:22:33+00:00"}
{"id":1223981310953259008,"conversationId":1223981310953259008,"content":"Idk abt all this google nonesense but it's gonna be 70 degrees today in KC. That's Corona weather‚òÄÔ∏èüçª #SBLIV #chiefs @corona https://t.co/eF0N6MQBqu","latitude":36.9931101,"longitude":-102.051769,"country":"United States","countryCode":"US","locationName":"Kansas, USA","userLocation":"","date":"2020-02-02T14:47:39+00:00"}
{"id":1223813754426494976,"conversationId":1223813754426494976,"content":"Can we stop ppl from traveling from Wuhan? https://t.co/j13jPsc39x","latitude":37.59485,"longitude":-121.074342,"country":"United States","countryCode":"US","locationName":"Modesto, CA","userLocation":"California, USA","date":"2020-02-02T03:41:51+00:00"}
{"id":1224009145428447237,"conversationId":1224009145428447237,"content":"Imagine being so ignorant that you have zero conceptualization of how a virus works and you‚Äôre putting it out on the TL for your friends and family to see that ‚ÄúiTs jUsT tHe cOmMoN fLu‚Äù please fucking educate yourselves guys our immune systems are no immunity against this-","latitude":38.618724,"longitude":-90.3623212,"country":"United States","countryCode":"US","locationName":"Richmond Heights, MO","userLocation":"St Louis, MO","date":"2020-02-02T16:38:15+00:00"}
{"id":1223811994433646594,"conversationId":1223782034629259264,"content":"@AnarrasAnsible Anything that reminds you to wash your hands.  Masks create more problems than they solve.  The people getting sick are medically vulnerable. This virus preys on the compromised.  Wash hands, get plenty of sleep, eat well, and have you washed your hands yet?","latitude":37.708075,"longitude":-122.514926,"country":"United States","countryCode":"US","locationName":"San Francisco, CA","userLocation":"Harlem, NYC","date":"2020-02-02T03:34:51+00:00"}
{"id":1223974616147693568,"conversationId":1223974616147693568,"content":"Everyone needs to watch this. There are only enough test kits for the extremely ill so actual #coronavirus case numbers from Wuhan are vastly underreported. \nhttps://t.co/BynM95PZPR","latitude":47.5175418,"longitude":-122.2672331,"country":"United States","countryCode":"US","locationName":"Mercer Island, WA","userLocation":"Seattle","date":"2020-02-02T14:21:03+00:00"}
{"id":1223809324029370368,"conversationId":1223809324029370368,"content":"My sister: what do you wanna eat? \nMe: Chinese food \nHer: did you know that China has the corona virus  \nLmaooooo okay she took it too far","latitude":32.528832,"longitude":-124.482003,"country":"United States","countryCode":"US","locationName":"California, USA","userLocation":"Somewhere Shmokinnn‚Äô ","date":"2020-02-02T03:24:14+00:00"}
{"id":1223862568852180992,"conversationId":1223861468933681152,"content":"@Real_Heena Yes this is not useful. Indians should be concerned. Their health system response can not come anywhere close to China‚Äôs and the virus could be much much more devastating    I fear for India Pakistan Bangladesh. It could be chaos   Called civil unrest","latitude":37.3300682,"longitude":-122.065206,"country":"United States","countryCode":"US","locationName":"Sunnyvale, CA","userLocation":"Sunnyvale, California","date":"2020-02-02T06:55:49+00:00"}
{"id":1224033421376344066,"conversationId":1224030826469289984,"content":"@1SweetTexan @love4thegameAK In war times. Military sets up hospitals in a day. Surgical too. A dangerous virus is something probably Africa has done for decades with seriousness of Ebola.","latitude":37.798704,"longitude":-88.46601,"country":"United States","countryCode":"US","locationName":"Eldorado, IL","userLocation":"","date":"2020-02-02T18:14:43+00:00"}
{"id":1223987847809638402,"conversationId":1223987364256788484,"content":"@watson_brent Cheers with a Corona!!‚Ä¶‚Ä¶‚Ä¶..","latitude":43.403221,"longitude":-79.639319,"country":"Canada","countryCode":"CA","locationName":"Toronto, Ontario","userLocation":"Toronto, Canada, 5150","date":"2020-02-02T15:13:38+00:00"}
{"id":1223975504811827200,"conversationId":1223975504811827200,"content":"If the #Wuhan #virus originated in bats, it will be one of many that the animals tolerate without ill effect, perhaps because of an unusual immune system. #CoronaVirus https://t.co/iw78Q3Va7k","latitude":28.3882177,"longitude":-81.507905,"country":"United States","countryCode":"US","locationName":"Orlando, FL","userLocation":"Orlando, FL","date":"2020-02-02T14:24:35+00:00"}
{"id":1223919256854642688,"conversationId":1223919256854642688,"content":"Welcome home. #WuhanChina #CoronaVirus #China #Wuhan #Plague https://t.co/MMmRCwak2q","latitude":33.797809,"longitude":-118.299695,"country":"United States","countryCode":"US","locationName":"West Carson, CA","userLocation":"Los Angeles, CA","date":"2020-02-02T10:41:04+00:00"}
{"id":1223853383502548992,"conversationId":1223853383502548992,"content":"Live hospital construction camera Wuhan, China.\n\nhttps://t.co/IZ4Mb5CwTb","latitude":37.0800241,"longitude":-113.536534,"country":"United States","countryCode":"US","locationName":"Washington, UT","userLocation":"","date":"2020-02-02T06:19:19+00:00"}
{"id":1223802216290504704,"conversationId":1223802216290504704,"content":"When Klay takes a photo like this a Corona gets a like https://t.co/NpACXHokCO","latitude":37.6365297,"longitude":-121.823726,"country":"United States","countryCode":"US","locationName":"Livermore, CA","userLocation":"Minneapolis, MN","date":"2020-02-02T02:56:00+00:00"}
{"id":1223799795455647744,"conversationId":1223787608125464576,"content":"@AlexBerenson Combine 20% of the human population, questionable hygiene and modern transportation in China. This virus has a long way to go before \"burning out.\" üò¨üò∑üôÅ","latitude":38.43792,"longitude":-121.576613,"country":"United States","countryCode":"US","locationName":"Sacramento, CA","userLocation":"Sacramento, CA","date":"2020-02-02T02:46:22+00:00"}
{"id":1224078961396920330,"conversationId":1224008980395184132,"content":"@KHannisse The death rate from this virus is low. More people in Canada die from the flu each year than die from this novel virus. Wash your hand frequently, don‚Äôt pick your nose. You will be fine","latitude":43.403221,"longitude":-79.639319,"country":"Canada","countryCode":"CA","locationName":"Toronto, Ontario","userLocation":"Toronto, Ontario","date":"2020-02-02T21:15:41+00:00"}
{"id":1223875062979129344,"conversationId":1222717981425188865,"content":"@KOlusola @mattsalleemusic @leigh_411 Those masks you are wearing will not do anything for you.  You must get a very specific mask to keep out a virus such as Corona.  \nWhy don't more people know that?\nFlimsy masks do nothing.","latitude":49.19854,"longitude":-123.224215,"country":"Canada","countryCode":"CA","locationName":"Vancouver, British Columbia","userLocation":"","date":"2020-02-02T07:45:28+00:00"}
{"id":1224052640310415360,"conversationId":1223859431600984066,"content":"@AnonymousBread2 Chiefs are going to get the Corona Virus? That would suck.","latitude":33.704538,"longitude":-118.668404,"country":"United States","countryCode":"US","locationName":"Los Angeles, CA","userLocation":"Los Angeles, CA","date":"2020-02-02T19:31:05+00:00"}
{"id":1224027258693865478,"conversationId":1224027258693865478,"content":"The corona virus is a new virus so how it‚Äôs is going to react to vaccines and other means is unknown.  But one thing is sure, Although it is new, it is one of many emergent life forms which will target humanity, almost as if humanity were the Bull‚ÄôsEye on a target!","latitude":25.837092,"longitude":-106.645646,"country":"United States","countryCode":"US","locationName":"Texas, USA","userLocation":"Balcones Canyonlands Refuge TX","date":"2020-02-02T17:50:14+00:00"}
{"id":1223970002174386177,"conversationId":1223970002174386177,"content":"@_AfricanUnion @ecowas_cedeao I fear for Africa's ability to protect it's people from the Coronavirus. There are more African doctors in US hospitals alone than in the entire continent. Besides, the Chinese are heading towards Africa to escape the virus &amp; they'll be allowed in.","latitude":42.491921,"longitude":-92.889433,"country":"United States","countryCode":"US","locationName":"Wisconsin, USA","userLocation":"Madison","date":"2020-02-02T14:02:43+00:00"}
{"id":1223861885256327168,"conversationId":1223831967629762561,"content":"@iwrenchi19 @issoxwadey It's fatal to all. Just matters how many do dad's on the outside of the Corona. The virus is that's a Corona virus.  The inside of SARS and MERS had the same center. This is different and the mutations on the outside of the cell make the difference between life and death.","latitude":39.871811,"longitude":-75.280284,"country":"United States","countryCode":"US","locationName":"Philadelphia, PA","userLocation":"Cape May, NJ","date":"2020-02-02T06:53:06+00:00"}
{"id":1223926356125409281,"conversationId":1223300113382113284,"content":"@Cassie27699036 @Remove_TrumpNow Wonder how that affects the use of virus protective masks.","latitude":39.832013,"longitude":-83.200169,"country":"United States","countryCode":"US","locationName":"Columbus, OH","userLocation":"Columbus, OH","date":"2020-02-02T11:09:17+00:00"}
{"id":1223849250968219650,"conversationId":1223789745010024448,"content":"@mayoushtak @TrudeauMustGo19 @ShawningArmor @anna_938 @chanmurdoch1414 @AGRichard1 @CPC_HQ With respect to the Corona virus there is no question that the Government has been rudderless.  We the opposition parties and Canadians need to press the Government for a plan !","latitude":43.633252,"longitude":-78.872015,"country":"Canada","countryCode":"CA","locationName":"Clarington, Ontario","userLocation":"Orono, Ontario","date":"2020-02-02T06:02:54+00:00"}
{"id":1223824481547882498,"conversationId":1223797256425496577,"content":"@AkbaruddinIndia Superb job by Indian authorities and air India to rescue Indian students from corona virus ground zero in Wuhan .  Gutsy Move !! Respect!!","latitude":30.355644,"longitude":-85.605166,"country":"United States","countryCode":"US","locationName":"Georgia, USA","userLocation":"","date":"2020-02-02T04:24:28+00:00"}
{"id":1223809935793893377,"conversationId":1223809935793893377,"content":"This corona iris has me buggin'.","latitude":41.625891,"longitude":-73.87089,"country":"United States","countryCode":"US","locationName":"La Grange, NY","userLocation":"Poughkeepsie, NY","date":"2020-02-02T03:26:40+00:00"}
{"id":1224046497198678017,"conversationId":1224046497198678017,"content":"Last two days with a stomach virus. Spend so so much time in the bathroom... SMHü§Æ @ Whitney Young Manor https://t.co/BKEZjiWzfM","latitude":40.93857991,"longitude":-73.88512616,"country":"United States","countryCode":"US","locationName":"Yonkers, NY","userLocation":"yonkers","date":"2020-02-02T19:06:41+00:00"}
{"id":1224033346080079872,"conversationId":1223949713348681734,"content":"@Jaminagain Until this virus is no longer a threat, all counties should. It speaks volumes the Chinese have locked down their own cities. But to idiot PM this is ‚Äúracist.‚Äù","latitude":43.749761,"longitude":-79.711527,"country":"Canada","countryCode":"CA","locationName":"Vaughan, Ontario","userLocation":"","date":"2020-02-02T18:14:25+00:00"}
{"id":1224114199590137857,"conversationId":1224114199590137857,"content":"They found 2 confirmed cases of the corona virus in San Jose... lol it was nice knowing y‚Äôall","latitude":32.528832,"longitude":-124.482003,"country":"United States","countryCode":"US","locationName":"California, USA","userLocation":"Colton, CA","date":"2020-02-02T23:35:42+00:00"}
{"id":1223982538864988160,"conversationId":1223982538864988160,"content":"current weather in Corona: clear sky, 50¬∞F\n60% humidity, wind 3mph, pressure 1017mb","latitude":33.88,"longitude":-117.58,"country":"United States","countryCode":"US","locationName":"Corona, CA","userLocation":"Corona, CA","date":"2020-02-02T14:52:32+00:00"}
{"id":1224053845590007811,"conversationId":1224053845590007811,"content":"Novel Virus DiseaseHospital had been completed inWuhan, China ONLY 10 DAYS. https://t.co/Li53NhJkey","latitude":43.829311,"longitude":-79.485633,"country":"Canada","countryCode":"CA","locationName":"Richmond Hill, Ontario","userLocation":"Newmarket, Ontario","date":"2020-02-02T19:35:53+00:00"}
{"id":1224027407608373248,"conversationId":1223787809992998912,"content":"@mynameisnotkimm @angiekaye999 This strain had the HIV virus mutated into it. Military grade bioweapon from what I've been reading. Hoax or pure evil?","latitude":40.570289,"longitude":-79.772704,"country":"United States","countryCode":"US","locationName":"Arnold, PA","userLocation":"Pittsburgh, PA/ Tucson raised","date":"2020-02-02T17:50:49+00:00"}
{"id":1223970655026270209,"conversationId":1223970655026270209,"content":"Really wish we were getting the REAL info on the #coronovirus not trying to sound like a conspiracist but the numbers &amp; some info just don't seem right for a new virus #preppers #preppertalk","latitude":42.358696,"longitude":-76.892963,"country":"United States","countryCode":"US","locationName":"Watkins Glen, NY","userLocation":"Trumansburg, NY","date":"2020-02-02T14:05:19+00:00"}
{"id":1223805224357376000,"conversationId":1223612171956957184,"content":"@chigrl Soon we will have  the coronabird virus","latitude":40.541722,"longitude":-73.962582,"country":"United States","countryCode":"US","locationName":"Queens, NY","userLocation":"USA and Rio de janeiro","date":"2020-02-02T03:07:57+00:00"}
{"id":1223801428923297793,"conversationId":1223801428923297793,"content":"Corona Virus Is In Dallas Now.....Too Fucking Close Now......Yikes","latitude":32.569477,"longitude":-97.538285,"country":"United States","countryCode":"US","locationName":"Fort Worth, TX","userLocation":"Fort Worth, TX","date":"2020-02-02T02:52:52+00:00"}
{"id":1224036165466120193,"conversationId":1224036165466120193,"content":"We are very westernized here.  I‚Äôm not worried about the virus.  Take a few drops of oregano oil twice a day.   I‚Äôm healthy and drive and don‚Äôt take transit. https://t.co/prxOl2IS2T","latitude":43.749761,"longitude":-79.711527,"country":"Canada","countryCode":"CA","locationName":"Vaughan, Ontario","userLocation":"Toronto, Ontario","date":"2020-02-02T18:25:37+00:00"}
{"id":1223816729492586496,"conversationId":1223749607341154304,"content":"@soledadobrien Maybe spreading virus. Getting a virus like coronavirus - apparently not much.","latitude":34.982924,"longitude":-90.310298,"country":"United States","countryCode":"US","locationName":"Tennessee, USA","userLocation":"Tennessee, USA","date":"2020-02-02T03:53:40+00:00"}
{"id":1224077749045821440,"conversationId":1224077017374756870,"content":"@CharlieHatfield If the data from China was or is accurate, yes. But look at how China is treating the people in the videos they are dressed in full bio gear and all indications are this virus is much worse then reported","latitude":40.762747,"longitude":-72.965764,"country":"United States","countryCode":"US","locationName":"North Bellport, NY","userLocation":"","date":"2020-02-02T21:10:52+00:00"}
{"id":1223925663939416066,"conversationId":1223925663939416066,"content":"The worse part of this Corona Virus is that your not gonna be able to believe any info that's coming from China !","latitude":38.917578,"longitude":-84.7067967,"country":"United States","countryCode":"US","locationName":"Florence, KY","userLocation":"Ocala, FL","date":"2020-02-02T11:06:32+00:00"}
{"id":1223836400258170882,"conversationId":1223835068847644672,"content":"@activepro818 Damnnnnn, why homie, cause of the virus?","latitude":33.704538,"longitude":-118.668404,"country":"United States","countryCode":"US","locationName":"Los Angeles, CA","userLocation":"Chatsworth, Los Angeles","date":"2020-02-02T05:11:50+00:00"}
{"id":1224086016337772544,"conversationId":1224086016337772544,"content":"Trying not to be a jerk here, but Wuhan has over 11 million people. Please tell us what the regular flu has been up to in Wuhan‚Ä¶ https://t.co/nmZSrbuztE","latitude":32.923164,"longitude":-96.769003,"country":"United States","countryCode":"US","locationName":"Richardson, TX","userLocation":"Dallas, TX","date":"2020-02-02T21:43:43+00:00"}
{"id":1224020993477353473,"conversationId":1224020993477353473,"content":"Just wonder why Canadian government doesn‚Äôt mention and inform about the people‚Äôs footsteps who are confirmed of corona virus, is it secret? One woman is in quarantine at her house in London, On.\nBut we don‚Äôt know where she had been around or contact with people after landing to","latitude":43.309929,"longitude":-79.810961,"country":"Canada","countryCode":"CA","locationName":"Oakville, Ontario","userLocation":"Oakville, Ontario","date":"2020-02-02T17:25:20+00:00"}
{"id":1223840616473333760,"conversationId":1223840616473333760,"content":"why is everyone sick with the corona virus? just put lime on it????","latitude":40.959134,"longitude":-73.753788,"country":"United States","countryCode":"US","locationName":"Harrison, NY","userLocation":"New York, USA","date":"2020-02-02T05:28:35+00:00"}
{"id":1223802746819751937,"conversationId":1223790349795188737,"content":"@evansiegfried There was no indication of it being viral until 1/22. See chart below for reported suspects/death # by date. Stop spreading fake news and you should have a global mindset. China is probably the only government that can lockdown a city that fast to stop the virus from spreading. https://t.co/VyWoL3qCXM","latitude":40.683935,"longitude":-74.026675,"country":"United States","countryCode":"US","locationName":"Manhattan, NY","userLocation":"Earth","date":"2020-02-02T02:58:06+00:00"}
{"id":1224023336495276032,"conversationId":1224023336495276032,"content":"Can‚Äôt wait for my intl. trips this month, especially to witness ‚ÄúCORONA V‚Äù displayed on the upgrade status on the Gate Terminal TV display.","latitude":35.678557,"longitude":-78.915463,"country":"United States","countryCode":"US","locationName":"Apex, NC","userLocation":"Raleigh, NC by way of Chicago","date":"2020-02-02T17:34:39+00:00"}
{"id":1223967474913370114,"conversationId":1223967474913370114,"content":"'There's no doubt': Top US infectious disease doctor says Wuhan coronavirus can spread even when people ... #Topbuzz https://t.co/PF2KlfReRK","latitude":38.801044,"longitude":-81.735946,"country":"United States","countryCode":"US","locationName":"Ripley, WV","userLocation":"West Virginia, USA","date":"2020-02-02T13:52:40+00:00"}
